source_uid,station_id,source_name,descriptionDataset,data_repository_ftp,wmo_id,station_name,lat,lon,elev, fips_code,country,continent,station_data_policy,station_data_type,data_update_status,station_metadata_link,timestep,ver,obs_freq,obs_time_GMT,Wind_speed _start_year,Wind_speed _end_year,Wind_direction_start_year,Wind_direction_end_year,Sea_Level_Pressure _start_year,Sea_Level_Pressure_end_year
1000245,481,NCAR colorado USA_2_various_2,TD_13_NCAR_Sub_Daily_data_Global,NCAR_Via_MattMenne,,Helsinki Finland,60.17,24.95,11,,Finland,,WMO Resolution 40,raw,NA,NA,sbdy ,NA,,,1901,1926,1901,1926,1901,1926
1000245,482,NCAR colorado USA_2_various_2,TD_13_NCAR_Sub_Daily_data_Global,NCAR_Via_MattMenne,,Sortavala USSR,61.7,30.68,15,,Russian Federation,,WMO Resolution 40,raw,NA,NA,sbdy ,NA,,,1901,1926,1901,1926,1901,1926
1000245,483,NCAR colorado USA_2_various_2,TD_13_NCAR_Sub_Daily_data_Global,NCAR_Via_MattMenne,,Vaasa Finland,63.08,21.62,8,,Finland,,WMO Resolution 40,raw,NA,NA,sbdy ,NA,,,1901,1926,1901,1926,1901,1926
1000245,484,NCAR colorado USA_2_various_2,TD_13_NCAR_Sub_Daily_data_Global,NCAR_Via_MattMenne,,Kuopio Finland,62.9,27.67,90,,Finland,,WMO Resolution 40,raw,NA,NA,sbdy ,NA,,,1901,1926,1901,1926,1901,1926
1000245,485,NCAR colorado USA_2_various_2,TD_13_NCAR_Sub_Daily_data_Global,NCAR_Via_MattMenne,,Sodankyla Finland,67.37,26.65,181,,Finland,,WMO Resolution 40,raw,NA,NA,sbdy ,NA,,,1901,1926,1901,1926,1901,1926
1000245,486,NCAR colorado USA_2_various_2,TD_13_NCAR_Sub_Daily_data_Global,NCAR_Via_MattMenne,,Kajaani Finland,64.22,27.77,146,,Finland,,WMO Resolution 40,raw,NA,NA,sbdy ,NA,,,1901,1926,1901,1926,1901,1926
1000245,487,NCAR colorado USA_2_various_2,TD_13_NCAR_Sub_Daily_data_Global,NCAR_Via_MattMenne,,Tampere Finland (Tammerfors),61.5,23.77,83,,Finland,,WMO Resolution 40,raw,NA,NA,sbdy ,NA,,,1901,1926,1901,1926,1901,1926
1000245,488,NCAR colorado USA_2_various_2,TD_13_NCAR_Sub_Daily_data_Global,NCAR_Via_MattMenne,,Turku Finland (ABO),60.45,22.27,14,,Finland,,WMO Resolution 40,raw,NA,NA,sbdy ,NA,,,1901,1926,1901,1926,1901,1926
1000245,489,NCAR colorado USA_2_various_2,TD_13_NCAR_Sub_Daily_data_Global,NCAR_Via_MattMenne,,Inari Finland (Thule),69.1,27.22,149,,Finland,,WMO Resolution 40,raw,NA,NA,sbdy ,NA,,,1901,1926,1901,1926,1901,1926
1000245,490,NCAR colorado USA_2_various_2,TD_13_NCAR_Sub_Daily_data_Global,NCAR_Via_MattMenne,,Hango Finland,59.77,22.95,6,,Finland,,WMO Resolution 40,raw,NA,NA,sbdy ,NA,,,1901,1926,1901,1926,1901,1926
1000245,491,NCAR colorado USA_2_various_2,TD_13_NCAR_Sub_Daily_data_Global,NCAR_Via_MattMenne,,Mariehamn Finland,60.1,19.95,14,,Finland,,WMO Resolution 40,raw,NA,NA,sbdy ,NA,,,1901,1926,1901,1926,1901,1926
1000245,492,NCAR colorado USA_2_various_2,TD_13_NCAR_Sub_Daily_data_Global,NCAR_Via_MattMenne,,Vipuri USSR (Viborg),60.72,28.78,2,,Russian Federation,,WMO Resolution 40,raw,NA,NA,sbdy ,NA,,,1901,1926,1901,1926,1901,1926
1000245,493,NCAR colorado USA_2_various_2,TD_13_NCAR_Sub_Daily_data_Global,NCAR_Via_MattMenne,,Jyvaskyla Finland,62.23,25.73,94,,Finland,,WMO Resolution 40,raw,NA,NA,sbdy ,NA,,,1901,1926,1901,1926,1901,1926
1000245,494,NCAR colorado USA_2_various_2,TD_13_NCAR_Sub_Daily_data_Global,NCAR_Via_MattMenne,,Oulu Finland (Uleaborg),65.02,25.45,10,,Finland,,WMO Resolution 40,raw,NA,NA,sbdy ,NA,,,1901,1926,1901,1926,1901,1926
1000245,501,NCAR colorado USA_2_various_2,TD_13_NCAR_Sub_Daily_data_Global,NCAR_Via_MattMenne,,Bogskar Finland,59.5,20.35,25,,Finland,,WMO Resolution 40,raw,NA,NA,sbdy ,NA,,,1901,1926,1901,1926,1901,1926
1000245,502,NCAR colorado USA_2_various_2,TD_13_NCAR_Sub_Daily_data_Global,NCAR_Via_MattMenne,,Kuusamo Finland,65.95,29.2,256,,Finland,,WMO Resolution 40,raw,NA,NA,sbdy ,NA,,,1901,1926,1901,1926,1901,1926
1000245,503,NCAR colorado USA_2_various_2,TD_13_NCAR_Sub_Daily_data_Global,NCAR_Via_MattMenne,,Lauttakyla Finland,61.18,22.62,50,,Finland,,WMO Resolution 40,raw,NA,NA,sbdy ,NA,,,1901,1926,1901,1926,1901,1926
1000245,504,NCAR colorado USA_2_various_2,TD_13_NCAR_Sub_Daily_data_Global,NCAR_Via_MattMenne,,Sabbskar Finland,61.48,21.35,6,,Finland,,WMO Resolution 40,raw,NA,NA,sbdy ,NA,,,1901,1926,1901,1926,1901,1926
1000245,505,NCAR colorado USA_2_various_2,TD_13_NCAR_Sub_Daily_data_Global,NCAR_Via_MattMenne,,Wartsila USSR,62.17,30.65,71,,Russian Federation,,WMO Resolution 40,raw,NA,NA,sbdy ,NA,,,1901,1926,1901,1926,1901,1926
1000245,506,NCAR colorado USA_2_various_2,TD_13_NCAR_Sub_Daily_data_Global,NCAR_Via_MattMenne,,Ulkokalla Finland,64.33,23.45,4,,Finland,,WMO Resolution 40,raw,NA,NA,sbdy ,NA,,,1901,1926,1901,1926,1901,1926
1000245,88968,NCAR colorado USA_2_various_2,TD_13_NCAR_Sub_Daily_data_Global,NCAR_Via_MattMenne,,Laurie Is South Orkney Islands,-60.73,-44.73,3,,Antarctica,,WMO Resolution 40,raw,NA,NA,sbdy ,NA,,,1905,1911,1905,1911,1905,1911
1000245,10000,NCAR colorado USA_2_various_2,TD_13_NCAR_Sub_Daily_data_Global,NCAR_Via_MattMenne,,Myggbukta Greenland,73.48,-21.57,3,,Greenland,,WMO Resolution 40,raw,NA,NA,sbdy ,NA,,,1913,1951,1913,1951,1913,1951
1000245,10001,NCAR colorado USA_2_various_2,TD_13_NCAR_Sub_Daily_data_Global,NCAR_Via_MattMenne,,Jan Mayen Norwegian Sea,70.98,-8.33,22,,Jan Mayen,,WMO Resolution 40,raw,NA,NA,sbdy ,NA,,,1913,1951,1913,1951,1913,1951
1000245,10002,NCAR colorado USA_2_various_2,TD_13_NCAR_Sub_Daily_data_Global,NCAR_Via_MattMenne,,Isfjord Radio Spitzbergen,78.07,13.63,7,,Norway,,WMO Resolution 40,raw,NA,NA,sbdy ,NA,,,1913,1951,1913,1951,1913,1951
1000245,10003,NCAR colorado USA_2_various_2,TD_13_NCAR_Sub_Daily_data_Global,NCAR_Via_MattMenne,,Bjornoya Bear Island (Bareninsel),74.47,19.28,28,,Norway,,WMO Resolution 40,raw,NA,NA,sbdy ,NA,,,1913,1951,1913,1951,1913,1951
1000245,10004,NCAR colorado USA_2_various_2,TD_13_NCAR_Sub_Daily_data_Global,NCAR_Via_MattMenne,,Vardo Norway,70.37,31.1,11,,Norway,,WMO Resolution 40,raw,NA,NA,sbdy ,NA,,,1913,1951,1913,1951,1913,1951
1000245,10005,NCAR colorado USA_2_various_2,TD_13_NCAR_Sub_Daily_data_Global,NCAR_Via_MattMenne,,Ingoy Norway,71.07,24.15,3,,Norway,,WMO Resolution 40,raw,NA,NA,sbdy ,NA,,,1913,1951,1913,1951,1913,1951
1000245,10009,NCAR colorado USA_2_various_2,TD_13_NCAR_Sub_Daily_data_Global,NCAR_Via_MattMenne,,Andenes Norway,69.33,16.13,7,,Norway,,WMO Resolution 40,raw,NA,NA,sbdy ,NA,,,1913,1951,1913,1951,1913,1951
1000245,10011,NCAR colorado USA_2_various_2,TD_13_NCAR_Sub_Daily_data_Global,NCAR_Via_MattMenne,,Rost Norway,67.5,12.07,10,,Norway,,WMO Resolution 40,raw,NA,NA,sbdy ,NA,,,1913,1951,1913,1951,1913,1951
1000245,10014,NCAR colorado USA_2_various_2,TD_13_NCAR_Sub_Daily_data_Global,NCAR_Via_MattMenne,,Nordoyan Norway,64.8,10.55,36,,Norway,,WMO Resolution 40,raw,NA,NA,sbdy ,NA,,,1913,1951,1913,1951,1913,1951
1000245,10021,NCAR colorado USA_2_various_2,TD_13_NCAR_Sub_Daily_data_Global,NCAR_Via_MattMenne,,Krakenes Norway,62.03,4.98,41,,Norway,,WMO Resolution 40,raw,NA,NA,sbdy ,NA,,,1913,1951,1913,1951,1913,1951
1000245,10028,NCAR colorado USA_2_various_2,TD_13_NCAR_Sub_Daily_data_Global,NCAR_Via_MattMenne,,Utsira Norway,59.3,4.88,56,,Norway,,WMO Resolution 40,raw,NA,NA,sbdy ,NA,,,1913,1951,1913,1951,1913,1951
1000245,10030,NCAR colorado USA_2_various_2,TD_13_NCAR_Sub_Daily_data_Global,NCAR_Via_MattMenne,,Lista Norway,58.1,6.57,9,,Norway,,WMO Resolution 40,raw,NA,NA,sbdy ,NA,,,1913,1951,1913,1951,1913,1951
1000245,10036,NCAR colorado USA_2_various_2,TD_13_NCAR_Sub_Daily_data_Global,NCAR_Via_MattMenne,,Ferder Norway (Faerder),59.03,10.53,9,,Norway,,WMO Resolution 40,raw,NA,NA,sbdy ,NA,,,1913,1951,1913,1951,1913,1951
1000245,10050,NCAR colorado USA_2_various_2,TD_13_NCAR_Sub_Daily_data_Global,NCAR_Via_MattMenne,,Haparanda Sweden,65.83,24.15,8,,Sweden,,WMO Resolution 40,raw,NA,NA,sbdy ,NA,,,1913,1951,1913,1951,1913,1951
1000245,10056,NCAR colorado USA_2_various_2,TD_13_NCAR_Sub_Daily_data_Global,NCAR_Via_MattMenne,,Stensele Sweden,65.07,17.17,327,,Sweden,,WMO Resolution 40,raw,NA,NA,sbdy ,NA,,,1913,1951,1913,1951,1913,1951
1000245,10057,NCAR colorado USA_2_various_2,TD_13_NCAR_Sub_Daily_data_Global,NCAR_Via_MattMenne,,Harnosand Sweden,62.62,17.95,9,,Sweden,,WMO Resolution 40,raw,NA,NA,sbdy ,NA,,,1913,1951,1913,1951,1913,1951
1000245,10059,NCAR colorado USA_2_various_2,TD_13_NCAR_Sub_Daily_data_Global,NCAR_Via_MattMenne,,Stockholm Sweden,59.35,17.95,10,,Sweden,,WMO Resolution 40,raw,NA,NA,sbdy ,NA,,,1913,1951,1913,1951,1913,1951
1000245,10110,NCAR colorado USA_2_various_2,TD_13_NCAR_Sub_Daily_data_Global,NCAR_Via_MattMenne,,Lerwick Shetland Islands Great Britain,60.15,-1.13,47,,United Kingdom,,WMO Resolution 40,raw,NA,NA,sbdy ,NA,,,1913,1951,1913,1951,1913,1951
1000245,10168,NCAR colorado USA_2_various_2,TD_13_NCAR_Sub_Daily_data_Global,NCAR_Via_MattMenne,,Guernsey Channel Island Great Britain,49.45,-2.55,53,,Guernsey,,WMO Resolution 40,raw,NA,NA,sbdy ,NA,,,1913,1951,1913,1951,1913,1951
1000245,10170,NCAR colorado USA_2_various_2,TD_13_NCAR_Sub_Daily_data_Global,NCAR_Via_MattMenne,,Reykjavik Iceland,64.15,-21.95,15,,Iceland,,WMO Resolution 40,raw,NA,NA,sbdy ,NA,,,1913,1951,1913,1951,1913,1951
1000245,10172,NCAR colorado USA_2_various_2,TD_13_NCAR_Sub_Daily_data_Global,NCAR_Via_MattMenne,,Bolungarvik Iceland,66.17,-23.22,6,,Iceland,,WMO Resolution 40,raw,NA,NA,sbdy ,NA,,,1913,1951,1913,1951,1913,1951
1000245,10174,NCAR colorado USA_2_various_2,TD_13_NCAR_Sub_Daily_data_Global,NCAR_Via_MattMenne,,Akureyri Iceland,65.68,-18.08,7,,Iceland,,WMO Resolution 40,raw,NA,NA,sbdy ,NA,,,1913,1951,1913,1951,1913,1951
1000245,10176,NCAR colorado USA_2_various_2,TD_13_NCAR_Sub_Daily_data_Global,NCAR_Via_MattMenne,,Seydisfjord Iceland,65.27,-13.58,7,,Iceland,,WMO Resolution 40,raw,NA,NA,sbdy ,NA,,,1913,1951,1913,1951,1913,1951
1000245,10178,NCAR colorado USA_2_various_2,TD_13_NCAR_Sub_Daily_data_Global,NCAR_Via_MattMenne,,Westman Island Iceland (Vestmannaeyjar),63.4,-20.28,121,,Iceland,,WMO Resolution 40,raw,NA,NA,sbdy ,NA,,,1913,1951,1913,1951,1913,1951
1000245,10181,NCAR colorado USA_2_various_2,TD_13_NCAR_Sub_Daily_data_Global,NCAR_Via_MattMenne,,Kopenhagen Denmark,55.62,12.65,0,,Denmark,,WMO Resolution 40,raw,NA,NA,sbdy ,NA,,,1913,1951,1913,1951,1913,1951
1000245,10182,NCAR colorado USA_2_various_2,TD_13_NCAR_Sub_Daily_data_Global,NCAR_Via_MattMenne,,Skagen Denmark,57.73,10.63,3,,Denmark,,WMO Resolution 40,raw,NA,NA,sbdy ,NA,,,1913,1951,1913,1951,1913,1951
1000245,10184,NCAR colorado USA_2_various_2,TD_13_NCAR_Sub_Daily_data_Global,NCAR_Via_MattMenne,,Blaavandshuk Denmark,55.55,8.08,14,,Denmark,,WMO Resolution 40,raw,NA,NA,sbdy ,NA,,,1913,1951,1913,1951,1913,1951
1000245,10191,NCAR colorado USA_2_various_2,TD_13_NCAR_Sub_Daily_data_Global,NCAR_Via_MattMenne,,Thorshaven Faeroe Islands,62.05,-6.75,25,,Faroe Islands,,WMO Resolution 40,raw,NA,NA,sbdy ,NA,,,1913,1951,1913,1951,1913,1951
1000245,10201,NCAR colorado USA_2_various_2,TD_13_NCAR_Sub_Daily_data_Global,NCAR_Via_MattMenne,,Rochefort France,45.92,-0.98,3,,France,,WMO Resolution 40,raw,NA,NA,sbdy ,NA,,,1913,1951,1913,1951,1913,1951
1000245,10202,NCAR colorado USA_2_various_2,TD_13_NCAR_Sub_Daily_data_Global,NCAR_Via_MattMenne,,Biarritz France,43.48,-1.57,28,,France,,WMO Resolution 40,raw,NA,NA,sbdy ,NA,,,1913,1951,1913,1951,1913,1951
1000245,10210,NCAR colorado USA_2_various_2,TD_13_NCAR_Sub_Daily_data_Global,NCAR_Via_MattMenne,,Lyon France,45.73,4.92,197,,France,,WMO Resolution 40,raw,NA,NA,sbdy ,NA,,,1913,1951,1913,1951,1913,1951
1000245,10215,NCAR colorado USA_2_various_2,TD_13_NCAR_Sub_Daily_data_Global,NCAR_Via_MattMenne,,Paris France (Le Bourget),48.95,2.43,46,,France,,WMO Resolution 40,raw,NA,NA,sbdy ,NA,,,1913,1951,1913,1951,1913,1951
1000245,10216,NCAR colorado USA_2_various_2,TD_13_NCAR_Sub_Daily_data_Global,NCAR_Via_MattMenne,,Perpignan France,42.73,2.87,45,,France,,WMO Resolution 40,raw,NA,NA,sbdy ,NA,,,1913,1951,1913,1951,1913,1951
1000245,10217,NCAR colorado USA_2_various_2,TD_13_NCAR_Sub_Daily_data_Global,NCAR_Via_MattMenne,,Le Talut France,47.3,-3.27,45,,France,,WMO Resolution 40,raw,NA,NA,sbdy ,NA,,,1913,1951,1913,1951,1913,1951
1000245,10220,NCAR colorado USA_2_various_2,TD_13_NCAR_Sub_Daily_data_Global,NCAR_Via_MattMenne,,Brest France,48.28,-4.43,96,,France,,WMO Resolution 40,raw,NA,NA,sbdy ,NA,,,1913,1951,1913,1951,1913,1951
1000245,10222,NCAR colorado USA_2_various_2,TD_13_NCAR_Sub_Daily_data_Global,NCAR_Via_MattMenne,,Tours France,47.42,0.7,96,,France,,WMO Resolution 40,raw,NA,NA,sbdy ,NA,,,1913,1951,1913,1951,1913,1951
1000245,10230,NCAR colorado USA_2_various_2,TD_13_NCAR_Sub_Daily_data_Global,NCAR_Via_MattMenne,,Le Havre France,49.48,0.08,17,,France,,WMO Resolution 40,raw,NA,NA,sbdy ,NA,,,1913,1951,1913,1951,1913,1951
1000245,10231,NCAR colorado USA_2_various_2,TD_13_NCAR_Sub_Daily_data_Global,NCAR_Via_MattMenne,,Marseille France,43.43,5.22,12,,France,,WMO Resolution 40,raw,NA,NA,sbdy ,NA,,,1913,1951,1913,1951,1913,1951
1000245,10237,NCAR colorado USA_2_various_2,TD_13_NCAR_Sub_Daily_data_Global,NCAR_Via_MattMenne,,Nancy France,48.7,6.23,235,,France,,WMO Resolution 40,raw,NA,NA,sbdy ,NA,,,1913,1951,1913,1951,1913,1951
1000245,10246,NCAR colorado USA_2_various_2,TD_13_NCAR_Sub_Daily_data_Global,NCAR_Via_MattMenne,,Puy de Dome France,45.77,2.97,1466,,France,,WMO Resolution 40,raw,NA,NA,sbdy ,NA,,,1913,1951,1913,1951,1913,1951
1000245,10247,NCAR colorado USA_2_various_2,TD_13_NCAR_Sub_Daily_data_Global,NCAR_Via_MattMenne,,Pic du Midi France,42.93,0.13,2858,,France,,WMO Resolution 40,raw,NA,NA,sbdy ,NA,,,1913,1951,1913,1951,1913,1951
1000245,10248,NCAR colorado USA_2_various_2,TD_13_NCAR_Sub_Daily_data_Global,NCAR_Via_MattMenne,,Mt. Ventoux France,44.17,5.28,1899,,France,,WMO Resolution 40,raw,NA,NA,sbdy ,NA,,,1913,1951,1913,1951,1913,1951
1000245,10249,NCAR colorado USA_2_various_2,TD_13_NCAR_Sub_Daily_data_Global,NCAR_Via_MattMenne,,Mt. Aigoual France,44.12,3.58,1553,,France,,WMO Resolution 40,raw,NA,NA,sbdy ,NA,,,1913,1951,1913,1951,1913,1951
1000245,10272,NCAR colorado USA_2_various_2,TD_13_NCAR_Sub_Daily_data_Global,NCAR_Via_MattMenne,,Lanslebourg France,45.28,6.58,1402,,France,,WMO Resolution 40,raw,NA,NA,sbdy ,NA,,,1913,1951,1913,1951,1913,1951
1000245,10281,NCAR colorado USA_2_various_2,TD_13_NCAR_Sub_Daily_data_Global,NCAR_Via_MattMenne,,Zurich Switzerland,47.38,8.55,492,,Switzerland,,WMO Resolution 40,raw,NA,NA,sbdy ,NA,,,1913,1951,1913,1951,1913,1951
1000245,10284,NCAR colorado USA_2_various_2,TD_13_NCAR_Sub_Daily_data_Global,NCAR_Via_MattMenne,,Lugano Switzerland,46,8.95,275,,Switzerland,,WMO Resolution 40,raw,NA,NA,sbdy ,NA,,,1913,1951,1913,1951,1913,1951
1000245,10291,NCAR colorado USA_2_various_2,TD_13_NCAR_Sub_Daily_data_Global,NCAR_Via_MattMenne,,Helder Netherlands,52.97,4.75,6,,Netherlands,,WMO Resolution 40,raw,NA,NA,sbdy ,NA,,,1913,1951,1913,1951,1913,1951
1000245,10292,NCAR colorado USA_2_various_2,TD_13_NCAR_Sub_Daily_data_Global,NCAR_Via_MattMenne,,Flushing Netherlands (Vlissingen),51.43,3.57,9,,Netherlands,,WMO Resolution 40,raw,NA,NA,sbdy ,NA,,,1913,1951,1913,1951,1913,1951
1000245,10293,NCAR colorado USA_2_various_2,TD_13_NCAR_Sub_Daily_data_Global,NCAR_Via_MattMenne,,DeBilt Netherlands,52.1,5.18,3,,Netherlands,,WMO Resolution 40,raw,NA,NA,sbdy ,NA,,,1913,1951,1913,1951,1913,1951
1000245,10305,NCAR colorado USA_2_various_2,TD_13_NCAR_Sub_Daily_data_Global,NCAR_Via_MattMenne,,Genua Italy (Genova) (Genoa),44.4,8.9,2,,Italy,,WMO Resolution 40,raw,NA,NA,sbdy ,NA,,,1913,1951,1913,1951,1913,1951
1000245,10317,NCAR colorado USA_2_various_2,TD_13_NCAR_Sub_Daily_data_Global,NCAR_Via_MattMenne,,Florenz Italy,43.8,11.2,43,,Italy,,WMO Resolution 40,raw,NA,NA,sbdy ,NA,,,1913,1951,1913,1951,1913,1951
1000245,10322,NCAR colorado USA_2_various_2,TD_13_NCAR_Sub_Daily_data_Global,NCAR_Via_MattMenne,,Rom Italy,41.73,12.23,3,,Italy,,WMO Resolution 40,raw,NA,NA,sbdy ,NA,,,1913,1951,1913,1951,1913,1951
1000245,10333,NCAR colorado USA_2_various_2,TD_13_NCAR_Sub_Daily_data_Global,NCAR_Via_MattMenne,,Tarent Italy (Taranto),40.47,17.23,21,,Italy,,WMO Resolution 40,raw,NA,NA,sbdy ,NA,,,1913,1951,1913,1951,1913,1951
1000245,10335,NCAR colorado USA_2_various_2,TD_13_NCAR_Sub_Daily_data_Global,NCAR_Via_MattMenne,,Terranova Sardinia,40.93,9.5,2,,Italy,,WMO Resolution 40,raw,NA,NA,sbdy ,NA,,,1913,1951,1913,1951,1913,1951
1000245,10396,NCAR colorado USA_2_various_2,TD_13_NCAR_Sub_Daily_data_Global,NCAR_Via_MattMenne,,Point Delgada Azores Islands,37.73,-25.67,21,,Portugal,,WMO Resolution 40,raw,NA,NA,sbdy ,NA,,,1913,1951,1913,1951,1913,1951
1000245,10398,NCAR colorado USA_2_various_2,TD_13_NCAR_Sub_Daily_data_Global,NCAR_Via_MattMenne,,Horta Azores Islands,38.53,-28.63,64,,Portugal,,WMO Resolution 40,raw,NA,NA,sbdy ,NA,,,1913,1951,1913,1951,1913,1951
1000245,10400,NCAR colorado USA_2_various_2,TD_13_NCAR_Sub_Daily_data_Global,NCAR_Via_MattMenne,,Flensburg Germany,54.77,9.37,41,,Germany,,WMO Resolution 40,raw,NA,NA,sbdy ,NA,,,1913,1951,1913,1951,1913,1951
1000245,10401,NCAR colorado USA_2_various_2,TD_13_NCAR_Sub_Daily_data_Global,NCAR_Via_MattMenne,,Borkum Germany,53.58,6.67,6,,Germany,,WMO Resolution 40,raw,NA,NA,sbdy ,NA,,,1913,1951,1913,1951,1913,1951
1000245,10402,NCAR colorado USA_2_various_2,TD_13_NCAR_Sub_Daily_data_Global,NCAR_Via_MattMenne,,Nordhorn Germany,52.42,7.07,21,,Germany,,WMO Resolution 40,raw,NA,NA,sbdy ,NA,,,1913,1951,1913,1951,1913,1951
1000245,10403,NCAR colorado USA_2_various_2,TD_13_NCAR_Sub_Daily_data_Global,NCAR_Via_MattMenne,,Hamburg Germany,53.63,10,17,,Germany,,WMO Resolution 40,raw,NA,NA,sbdy ,NA,,,1913,1951,1913,1951,1913,1951
1000245,10404,NCAR colorado USA_2_various_2,TD_13_NCAR_Sub_Daily_data_Global,NCAR_Via_MattMenne,,Stettin Poland,53.4,14.63,0,,Poland,,WMO Resolution 40,raw,NA,NA,sbdy ,NA,,,1913,1951,1913,1951,1913,1951
1000245,10405,NCAR colorado USA_2_various_2,TD_13_NCAR_Sub_Daily_data_Global,NCAR_Via_MattMenne,,Danzig Poland,54.38,18.6,14,,Poland,,WMO Resolution 40,raw,NA,NA,sbdy ,NA,,,1913,1951,1913,1951,1913,1951
1000245,10406,NCAR colorado USA_2_various_2,TD_13_NCAR_Sub_Daily_data_Global,NCAR_Via_MattMenne,,Warnemunde Germany,54.18,12.1,0,,Germany,,WMO Resolution 40,raw,NA,NA,sbdy ,NA,,,1913,1951,1913,1951,1913,1951
1000245,10407,NCAR colorado USA_2_various_2,TD_13_NCAR_Sub_Daily_data_Global,NCAR_Via_MattMenne,,Aachen Germany,50.78,6.1,202,,Germany,,WMO Resolution 40,raw,NA,NA,sbdy ,NA,,,1913,1951,1913,1951,1913,1951
1000245,10408,NCAR colorado USA_2_various_2,TD_13_NCAR_Sub_Daily_data_Global,NCAR_Via_MattMenne,,Magdeburg Germany,52.13,11.72,45,,Germany,,WMO Resolution 40,raw,NA,NA,sbdy ,NA,,,1913,1951,1913,1951,1913,1951
1000245,10409,NCAR colorado USA_2_various_2,TD_13_NCAR_Sub_Daily_data_Global,NCAR_Via_MattMenne,,Fehmarnbelt Germany,54.6,11.15,0,,Germany,,WMO Resolution 40,raw,NA,NA,sbdy ,NA,,,1913,1951,1913,1951,1913,1951
1000245,10410,NCAR colorado USA_2_various_2,TD_13_NCAR_Sub_Daily_data_Global,NCAR_Via_MattMenne,,Dresden Germany,51.13,13.77,229,,Germany,,WMO Resolution 40,raw,NA,NA,sbdy ,NA,,,1913,1951,1913,1951,1913,1951
1000245,10411,NCAR colorado USA_2_various_2,TD_13_NCAR_Sub_Daily_data_Global,NCAR_Via_MattMenne,,Breslau Poland,51.07,17,120,,Poland,,WMO Resolution 40,raw,NA,NA,sbdy ,NA,,,1913,1951,1913,1951,1913,1951
1000245,10412,NCAR colorado USA_2_various_2,TD_13_NCAR_Sub_Daily_data_Global,NCAR_Via_MattMenne,,Frankfurt am Main Germany,50.05,8.6,110,,Germany,,WMO Resolution 40,raw,NA,NA,sbdy ,NA,,,1913,1951,1913,1951,1913,1951
1000245,10413,NCAR colorado USA_2_various_2,TD_13_NCAR_Sub_Daily_data_Global,NCAR_Via_MattMenne,,Karlsruhe Germany,49.02,8.38,117,,Germany,,WMO Resolution 40,raw,NA,NA,sbdy ,NA,,,1913,1951,1913,1951,1913,1951
1000245,10414,NCAR colorado USA_2_various_2,TD_13_NCAR_Sub_Daily_data_Global,NCAR_Via_MattMenne,,Munchen Germany,48.18,11.55,519,,Germany,,WMO Resolution 40,raw,NA,NA,sbdy ,NA,,,1913,1951,1913,1951,1913,1951
1000245,10418,NCAR colorado USA_2_various_2,TD_13_NCAR_Sub_Daily_data_Global,NCAR_Via_MattMenne,,Brocken Germany,51.8,10.62,1147,,Germany,,WMO Resolution 40,raw,NA,NA,sbdy ,NA,,,1913,1951,1913,1951,1913,1951
1000245,10420,NCAR colorado USA_2_various_2,TD_13_NCAR_Sub_Daily_data_Global,NCAR_Via_MattMenne,,Grunberg Poland,51.92,15.5,147,,Poland,,WMO Resolution 40,raw,NA,NA,sbdy ,NA,,,1913,1951,1913,1951,1913,1951
1000245,10421,NCAR colorado USA_2_various_2,TD_13_NCAR_Sub_Daily_data_Global,NCAR_Via_MattMenne,,Hannover Germany,52.42,9.75,50,,Germany,,WMO Resolution 40,raw,NA,NA,sbdy ,NA,,,1913,1951,1913,1951,1913,1951
1000245,10422,NCAR colorado USA_2_various_2,TD_13_NCAR_Sub_Daily_data_Global,NCAR_Via_MattMenne,,Konigsberg USSR (Kaliningrad),54.73,20.57,20,,Russian Federation,,WMO Resolution 40,raw,NA,NA,sbdy ,NA,,,1913,1951,1913,1951,1913,1951
1000245,10426,NCAR colorado USA_2_various_2,TD_13_NCAR_Sub_Daily_data_Global,NCAR_Via_MattMenne,,Nurnberg Germany,49.48,11.1,314,,Germany,,WMO Resolution 40,raw,NA,NA,sbdy ,NA,,,1913,1951,1913,1951,1913,1951
1000245,10429,NCAR colorado USA_2_various_2,TD_13_NCAR_Sub_Daily_data_Global,NCAR_Via_MattMenne,,Rugenwaldermunde Poland,54.43,16.38,7,,Poland,,WMO Resolution 40,raw,NA,NA,sbdy ,NA,,,1913,1951,1913,1951,1913,1951
1000245,10430,NCAR colorado USA_2_various_2,TD_13_NCAR_Sub_Daily_data_Global,NCAR_Via_MattMenne,,Wilhelmshaven Germany,53.53,8.15,3,,Germany,,WMO Resolution 40,raw,NA,NA,sbdy ,NA,,,1913,1951,1913,1951,1913,1951
1000245,10432,NCAR colorado USA_2_various_2,TD_13_NCAR_Sub_Daily_data_Global,NCAR_Via_MattMenne,,Borkumriff Germany,53.77,6.07,0,,Germany,,WMO Resolution 40,raw,NA,NA,sbdy ,NA,,,1913,1951,1913,1951,1913,1951
1000245,10433,NCAR colorado USA_2_various_2,TD_13_NCAR_Sub_Daily_data_Global,NCAR_Via_MattMenne,,Aussenjade Germany,53.87,7.93,0,,Germany,,WMO Resolution 40,raw,NA,NA,sbdy ,NA,,,1913,1951,1913,1951,1913,1951
1000245,10434,NCAR colorado USA_2_various_2,TD_13_NCAR_Sub_Daily_data_Global,NCAR_Via_MattMenne,,Elbe No. 1 Germany,54.02,8.22,8191,,Germany,,WMO Resolution 40,raw,NA,NA,sbdy ,NA,,,1913,1951,1913,1951,1913,1951
1000245,10435,NCAR colorado USA_2_various_2,TD_13_NCAR_Sub_Daily_data_Global,NCAR_Via_MattMenne,,Norderney Germany,53.7,7.15,3,,Germany,,WMO Resolution 40,raw,NA,NA,sbdy ,NA,,,1913,1951,1913,1951,1913,1951
1000245,10436,NCAR colorado USA_2_various_2,TD_13_NCAR_Sub_Daily_data_Global,NCAR_Via_MattMenne,,Koln Germany (Cologne),50.98,6.88,47,,Germany,,WMO Resolution 40,raw,NA,NA,sbdy ,NA,,,1913,1951,1913,1951,1913,1951
1000245,10437,NCAR colorado USA_2_various_2,TD_13_NCAR_Sub_Daily_data_Global,NCAR_Via_MattMenne,,Essen Germany (Mulheim),51.42,6.93,120,,Germany,,WMO Resolution 40,raw,NA,NA,sbdy ,NA,,,1913,1951,1913,1951,1913,1951
1000245,10440,NCAR colorado USA_2_various_2,TD_13_NCAR_Sub_Daily_data_Global,NCAR_Via_MattMenne,,Berlin Germany,52.48,13.43,47,,Germany,,WMO Resolution 40,raw,NA,NA,sbdy ,NA,,,1913,1951,1913,1951,1913,1951
1000245,10441,NCAR colorado USA_2_various_2,TD_13_NCAR_Sub_Daily_data_Global,NCAR_Via_MattMenne,,Saarbrucken Germany,49.22,7.03,188,,Germany,,WMO Resolution 40,raw,NA,NA,sbdy ,NA,,,1913,1951,1913,1951,1913,1951
1000245,10442,NCAR colorado USA_2_various_2,TD_13_NCAR_Sub_Daily_data_Global,NCAR_Via_MattMenne,,Bremen Germany,53.08,8.78,3,,Germany,,WMO Resolution 40,raw,NA,NA,sbdy ,NA,,,1913,1951,1913,1951,1913,1951
1000245,10443,NCAR colorado USA_2_various_2,TD_13_NCAR_Sub_Daily_data_Global,NCAR_Via_MattMenne,,Stuttgart Germany,48.68,9,427,,Germany,,WMO Resolution 40,raw,NA,NA,sbdy ,NA,,,1913,1951,1913,1951,1913,1951
1000245,10444,NCAR colorado USA_2_various_2,TD_13_NCAR_Sub_Daily_data_Global,NCAR_Via_MattMenne,,Friedrichshafen Germany,47.65,9.48,399,,Germany,,WMO Resolution 40,raw,NA,NA,sbdy ,NA,,,1913,1951,1913,1951,1913,1951
1000245,10445,NCAR colorado USA_2_various_2,TD_13_NCAR_Sub_Daily_data_Global,NCAR_Via_MattMenne,,Inselsberg Germany,50.85,10.47,909,,Germany,,WMO Resolution 40,raw,NA,NA,sbdy ,NA,,,1913,1951,1913,1951,1913,1951
1000245,10446,NCAR colorado USA_2_various_2,TD_13_NCAR_Sub_Daily_data_Global,NCAR_Via_MattMenne,,Erfurt Germany,51.02,11.03,179,,Germany,,WMO Resolution 40,raw,NA,NA,sbdy ,NA,,,1913,1951,1913,1951,1913,1951
1000245,10447,NCAR colorado USA_2_various_2,TD_13_NCAR_Sub_Daily_data_Global,NCAR_Via_MattMenne,,Memel USSR,55.72,21.13,3,,Lithuania,,WMO Resolution 40,raw,NA,NA,sbdy ,NA,,,1913,1951,1913,1951,1913,1951
1000245,10448,NCAR colorado USA_2_various_2,TD_13_NCAR_Sub_Daily_data_Global,NCAR_Via_MattMenne,,Kiel Germany,54.48,10.28,3,,Germany,,WMO Resolution 40,raw,NA,NA,sbdy ,NA,,,1913,1951,1913,1951,1913,1951
1000245,10449,NCAR colorado USA_2_various_2,TD_13_NCAR_Sub_Daily_data_Global,NCAR_Via_MattMenne,,Schkeuditz Germany,51.4,12.22,131,,Germany,,WMO Resolution 40,raw,NA,NA,sbdy ,NA,,,1913,1951,1913,1951,1913,1951
1000245,10450,NCAR colorado USA_2_various_2,TD_13_NCAR_Sub_Daily_data_Global,NCAR_Via_MattMenne,,Mirow Germany,53.35,12.73,70,,Germany,,WMO Resolution 40,raw,NA,NA,sbdy ,NA,,,1913,1951,1913,1951,1913,1951
1000245,10451,NCAR colorado USA_2_various_2,TD_13_NCAR_Sub_Daily_data_Global,NCAR_Via_MattMenne,,Hof Germany,50.32,11.88,566,,Germany,,WMO Resolution 40,raw,NA,NA,sbdy ,NA,,,1913,1951,1913,1951,1913,1951
1000245,10452,NCAR colorado USA_2_various_2,TD_13_NCAR_Sub_Daily_data_Global,NCAR_Via_MattMenne,,Adlergrund Germany,54.83,14.37,8191,,Germany,,WMO Resolution 40,raw,NA,NA,sbdy ,NA,,,1913,1951,1913,1951,1913,1951
1000245,10454,NCAR colorado USA_2_various_2,TD_13_NCAR_Sub_Daily_data_Global,NCAR_Via_MattMenne,,Gleiwitz Poland,50.27,18.67,246,,Poland,,WMO Resolution 40,raw,NA,NA,sbdy ,NA,,,1913,1951,1913,1951,1913,1951
1000245,10455,NCAR colorado USA_2_various_2,TD_13_NCAR_Sub_Daily_data_Global,NCAR_Via_MattMenne,,Swinemunde Poland,53.92,14.28,3,,Poland,,WMO Resolution 40,raw,NA,NA,sbdy ,NA,,,1913,1951,1913,1951,1913,1951
1000245,10460,NCAR colorado USA_2_various_2,TD_13_NCAR_Sub_Daily_data_Global,NCAR_Via_MattMenne,,Kiel-Holtenau Germany,54.38,10.15,28,,Germany,,WMO Resolution 40,raw,NA,NA,sbdy ,NA,,,1913,1951,1913,1951,1913,1951
1000245,10461,NCAR colorado USA_2_various_2,TD_13_NCAR_Sub_Daily_data_Global,NCAR_Via_MattMenne,,List Germany,55.02,8.43,0,,Germany,,WMO Resolution 40,raw,NA,NA,sbdy ,NA,,,1913,1951,1913,1951,1913,1951
1000245,10462,NCAR colorado USA_2_various_2,TD_13_NCAR_Sub_Daily_data_Global,NCAR_Via_MattMenne,,Amrumbank Germany,54.55,7.88,8191,,Germany,,WMO Resolution 40,raw,NA,NA,sbdy ,NA,,,1913,1951,1913,1951,1913,1951
1000245,10463,NCAR colorado USA_2_various_2,TD_13_NCAR_Sub_Daily_data_Global,NCAR_Via_MattMenne,,Cuxhaven Germany,53.87,8.72,3,,Germany,,WMO Resolution 40,raw,NA,NA,sbdy ,NA,,,1913,1951,1913,1951,1913,1951
1000245,10464,NCAR colorado USA_2_various_2,TD_13_NCAR_Sub_Daily_data_Global,NCAR_Via_MattMenne,,Arkona Germany,54.68,13.43,2,,Germany,,WMO Resolution 40,raw,NA,NA,sbdy ,NA,,,1913,1951,1913,1951,1913,1951
1000245,10465,NCAR colorado USA_2_various_2,TD_13_NCAR_Sub_Daily_data_Global,NCAR_Via_MattMenne,,Helgoland Germany,54.18,7.88,49,,Germany,,WMO Resolution 40,raw,NA,NA,sbdy ,NA,,,1913,1951,1913,1951,1913,1951
1000245,10470,NCAR colorado USA_2_various_2,TD_13_NCAR_Sub_Daily_data_Global,NCAR_Via_MattMenne,,Riga Latvia,56.98,24.08,2,,Latvia,,WMO Resolution 40,raw,NA,NA,sbdy ,NA,,,1913,1951,1913,1951,1913,1951
1000245,10481,NCAR colorado USA_2_various_2,TD_13_NCAR_Sub_Daily_data_Global,NCAR_Via_MattMenne,,Helsinki Poland,60.25,25.03,14,,Finland,,WMO Resolution 40,raw,NA,NA,sbdy ,NA,,,1913,1951,1913,1951,1913,1951
1000245,10501,NCAR colorado USA_2_various_2,TD_13_NCAR_Sub_Daily_data_Global,NCAR_Via_MattMenne,,Wien Austria (Vienna),48.22,16.55,156,,Austria,,WMO Resolution 40,raw,NA,NA,sbdy ,NA,,,1913,1951,1913,1951,1913,1951
1000245,10502,NCAR colorado USA_2_various_2,TD_13_NCAR_Sub_Daily_data_Global,NCAR_Via_MattMenne,,Klagenfurt Austria,46.65,14.33,448,,Austria,,WMO Resolution 40,raw,NA,NA,sbdy ,NA,,,1913,1951,1913,1951,1913,1951
1000245,10507,NCAR colorado USA_2_various_2,TD_13_NCAR_Sub_Daily_data_Global,NCAR_Via_MattMenne,,Innsbruck Austria,47.28,11.42,581,,Austria,,WMO Resolution 40,raw,NA,NA,sbdy ,NA,,,1913,1951,1913,1951,1913,1951
1000245,10541,NCAR colorado USA_2_various_2,TD_13_NCAR_Sub_Daily_data_Global,NCAR_Via_MattMenne,,Budapest Hungary,47.52,19.02,129,,Hungary,,WMO Resolution 40,raw,NA,NA,sbdy ,NA,,,1913,1951,1913,1951,1913,1951
1000245,10545,NCAR colorado USA_2_various_2,TD_13_NCAR_Sub_Daily_data_Global,NCAR_Via_MattMenne,,Debrecen Hungary,47.57,21.62,136,,Hungary,,WMO Resolution 40,raw,NA,NA,sbdy ,NA,,,1913,1951,1913,1951,1913,1951
1000245,10547,NCAR colorado USA_2_various_2,TD_13_NCAR_Sub_Daily_data_Global,NCAR_Via_MattMenne,,Funfkirchen Hungary (Pecs),46.1,18.25,153,,Hungary,,WMO Resolution 40,raw,NA,NA,sbdy ,NA,,,1913,1951,1913,1951,1913,1951
1000245,10556,NCAR colorado USA_2_various_2,TD_13_NCAR_Sub_Daily_data_Global,NCAR_Via_MattMenne,,Warschau Poland,52.18,20.97,132,,Poland,,WMO Resolution 40,raw,NA,NA,sbdy ,NA,,,1913,1951,1913,1951,1913,1951
1000245,10561,NCAR colorado USA_2_various_2,TD_13_NCAR_Sub_Daily_data_Global,NCAR_Via_MattMenne,,Krakau Poland,50.08,19.98,221,,Poland,,WMO Resolution 40,raw,NA,NA,sbdy ,NA,,,1913,1951,1913,1951,1913,1951
1000245,10569,NCAR colorado USA_2_various_2,TD_13_NCAR_Sub_Daily_data_Global,NCAR_Via_MattMenne,,Pinsk USSR,52.12,26.1,136,,Belarus,,WMO Resolution 40,raw,NA,NA,sbdy ,NA,,,1913,1951,1913,1951,1913,1951
1000245,10571,NCAR colorado USA_2_various_2,TD_13_NCAR_Sub_Daily_data_Global,NCAR_Via_MattMenne,,Lemberg USSR (Lvov),49.82,23.95,338,,Ukraine,,WMO Resolution 40,raw,NA,NA,sbdy ,NA,,,1913,1951,1913,1951,1913,1951
1000245,10575,NCAR colorado USA_2_various_2,TD_13_NCAR_Sub_Daily_data_Global,NCAR_Via_MattMenne,,Bucharest Rumania,44.48,26.13,92,,Romania,,WMO Resolution 40,raw,NA,NA,sbdy ,NA,,,1913,1951,1913,1951,1913,1951
1000245,10593,NCAR colorado USA_2_various_2,TD_13_NCAR_Sub_Daily_data_Global,NCAR_Via_MattMenne,,Predeal Rumania,45.5,25.58,1033,,Romania,,WMO Resolution 40,raw,NA,NA,sbdy ,NA,,,1913,1951,1913,1951,1913,1951
1000245,10669,NCAR colorado USA_2_various_2,TD_13_NCAR_Sub_Daily_data_Global,NCAR_Via_MattMenne,,Prag Czechoslovakia (Praha),50.1,14.28,370,,Czech Republic,,WMO Resolution 40,raw,NA,NA,sbdy ,NA,,,1913,1951,1913,1951,1913,1951
1000245,10694,NCAR colorado USA_2_various_2,TD_13_NCAR_Sub_Daily_data_Global,NCAR_Via_MattMenne,,Grimsey Iceland,66.55,-18.02,21,,Iceland,,WMO Resolution 40,raw,NA,NA,sbdy ,NA,,,1913,1951,1913,1951,1913,1951
1000245,10701,NCAR colorado USA_2_various_2,TD_13_NCAR_Sub_Daily_data_Global,NCAR_Via_MattMenne,,Belgrad Yugoslavia,44.82,20.42,78,,Serbia,,WMO Resolution 40,raw,NA,NA,sbdy ,NA,,,1913,1951,1913,1951,1913,1951
1000245,10718,NCAR colorado USA_2_various_2,TD_13_NCAR_Sub_Daily_data_Global,NCAR_Via_MattMenne,,Split Yugoslavia,43.52,16.43,128,,Croatia,,WMO Resolution 40,raw,NA,NA,sbdy ,NA,,,1913,1951,1913,1951,1913,1951
1000245,10720,NCAR colorado USA_2_various_2,TD_13_NCAR_Sub_Daily_data_Global,NCAR_Via_MattMenne,,Sofia Bulgaria,42.77,23.2,554,,Bulgaria,,WMO Resolution 40,raw,NA,NA,sbdy ,NA,,,1913,1951,1913,1951,1913,1951
1000245,10845,NCAR colorado USA_2_various_2,TD_13_NCAR_Sub_Daily_data_Global,NCAR_Via_MattMenne,,Leningrad USSR,59.98,30.28,4,,Russian Federation,,WMO Resolution 40,raw,NA,NA,sbdy ,NA,,,1913,1951,1913,1951,1913,1951
1000245,11177,NCAR colorado USA_2_various_2,TD_13_NCAR_Sub_Daily_data_Global,NCAR_Via_MattMenne,,Isafjord Iceland,65.55,-24.02,188,,Iceland,,WMO Resolution 40,raw,NA,NA,sbdy ,NA,,,1913,1951,1913,1951,1913,1951
1000245,11272,NCAR colorado USA_2_various_2,TD_13_NCAR_Sub_Daily_data_Global,NCAR_Via_MattMenne,,Briancon France,44.9,6.52,2560,,France,,WMO Resolution 40,raw,NA,NA,sbdy ,NA,,,1913,1951,1913,1951,1913,1951
1000245,11400,NCAR colorado USA_2_various_2,TD_13_NCAR_Sub_Daily_data_Global,NCAR_Via_MattMenne,,Flensburg Germany (Flghl),54.78,9.43,42,,Germany,,WMO Resolution 40,raw,NA,NA,sbdy ,NA,,,1913,1951,1913,1951,1913,1951
1000245,12116,NCAR colorado USA_2_various_2,TD_13_NCAR_Sub_Daily_data_Global,NCAR_Via_MattMenne,,Bulk Germany,54.45,10.2,0,,Germany,,WMO Resolution 40,raw,NA,NA,sbdy ,NA,,,1913,1951,1913,1951,1913,1951
1000245,12119,NCAR colorado USA_2_various_2,TD_13_NCAR_Sub_Daily_data_Global,NCAR_Via_MattMenne,,Marienleuchte Germany,54.5,11.25,10,,Germany,,WMO Resolution 40,raw,NA,NA,sbdy ,NA,,,1913,1951,1913,1951,1913,1951
1000245,12294,NCAR colorado USA_2_various_2,TD_13_NCAR_Sub_Daily_data_Global,NCAR_Via_MattMenne,,Kolberg Poland,54.18,15.57,6,,Poland,,WMO Resolution 40,raw,NA,NA,sbdy ,NA,,,1913,1951,1913,1951,1913,1951
1000245,12888,NCAR colorado USA_2_various_2,TD_13_NCAR_Sub_Daily_data_Global,NCAR_Via_MattMenne,,Calais France,50.97,1.83,27,,France,,WMO Resolution 40,raw,NA,NA,sbdy ,NA,,,1913,1951,1913,1951,1913,1951
1000245,0,NCAR colorado USA_2_various_2,TD_13_NCAR_Sub_Daily_data_Global,NCAR_Via_MattMenne,,Myggbukta Greenland-Norway Station,73.48,-21.57,3,,Greenland,,WMO Resolution 40,raw,NA,NA,sbdy ,NA,,,1926,1945,1926,1945,1926,1945
1000245,1,NCAR colorado USA_2_various_2,TD_13_NCAR_Sub_Daily_data_Global,NCAR_Via_MattMenne,,Jan Mayen Norway,70.98,-8.3,22,,Norway,,WMO Resolution 40,raw,NA,NA,sbdy ,NA,,,1926,1945,1926,1945,1926,1945
1000245,2,NCAR colorado USA_2_various_2,TD_13_NCAR_Sub_Daily_data_Global,NCAR_Via_MattMenne,,Isfjord Radio Spitzbergen Norway,78.07,13.63,7,,Norway,,WMO Resolution 40,raw,NA,NA,sbdy ,NA,,,1926,1945,1926,1945,1926,1945
1000245,3,NCAR colorado USA_2_various_2,TD_13_NCAR_Sub_Daily_data_Global,NCAR_Via_MattMenne,,Bjornoya Barents Sea Norway,74.47,19.28,28,,Norway,,WMO Resolution 40,raw,NA,NA,sbdy ,NA,,,1926,1945,1926,1945,1926,1945
1000245,4,NCAR colorado USA_2_various_2,TD_13_NCAR_Sub_Daily_data_Global,NCAR_Via_MattMenne,,Vardo Norway,70.37,31.1,11,,Norway,,WMO Resolution 40,raw,NA,NA,sbdy ,NA,,,1926,1945,1926,1945,1926,1945
1000245,5,NCAR colorado USA_2_various_2,TD_13_NCAR_Sub_Daily_data_Global,NCAR_Via_MattMenne,,Ingoy Norway,71.07,24.15,3,,Norway,,WMO Resolution 40,raw,NA,NA,sbdy ,NA,,,1926,1945,1926,1945,1926,1945
1000245,9,NCAR colorado USA_2_various_2,TD_13_NCAR_Sub_Daily_data_Global,NCAR_Via_MattMenne,,Andenes Norway,69.32,16.13,7,,Norway,,WMO Resolution 40,raw,NA,NA,sbdy ,NA,,,1926,1945,1926,1945,1926,1945
1000245,11,NCAR colorado USA_2_various_2,TD_13_NCAR_Sub_Daily_data_Global,NCAR_Via_MattMenne,,Rost Norway,67.5,12.07,10,,Norway,,WMO Resolution 40,raw,NA,NA,sbdy ,NA,,,1926,1945,1926,1945,1926,1945
1000245,14,NCAR colorado USA_2_various_2,TD_13_NCAR_Sub_Daily_data_Global,NCAR_Via_MattMenne,,Nordoyan Norway,64.8,10.55,36,,Norway,,WMO Resolution 40,raw,NA,NA,sbdy ,NA,,,1926,1945,1926,1945,1926,1945
1000245,21,NCAR colorado USA_2_various_2,TD_13_NCAR_Sub_Daily_data_Global,NCAR_Via_MattMenne,,Kinn Norway,61.57,4.8,7,,Norway,,WMO Resolution 40,raw,NA,NA,sbdy ,NA,,,1926,1945,1926,1945,1926,1945
1000245,28,NCAR colorado USA_2_various_2,TD_13_NCAR_Sub_Daily_data_Global,NCAR_Via_MattMenne,,Utsira Norway,59.3,4.88,56,,Norway,,WMO Resolution 40,raw,NA,NA,sbdy ,NA,,,1926,1945,1926,1945,1926,1945
1000245,30,NCAR colorado USA_2_various_2,TD_13_NCAR_Sub_Daily_data_Global,NCAR_Via_MattMenne,,Lista Norway,58.1,6.57,9,,Norway,,WMO Resolution 40,raw,NA,NA,sbdy ,NA,,,1926,1945,1926,1945,1926,1945
1000245,36,NCAR colorado USA_2_various_2,TD_13_NCAR_Sub_Daily_data_Global,NCAR_Via_MattMenne,,Ferder Norway,59.03,10.53,9,,Norway,,WMO Resolution 40,raw,NA,NA,sbdy ,NA,,,1926,1945,1926,1945,1926,1945
1000245,39,NCAR colorado USA_2_various_2,TD_13_NCAR_Sub_Daily_data_Global,NCAR_Via_MattMenne,,Oslo Fornelbu Norway,59.9,10.62,17,,Norway,,WMO Resolution 40,raw,NA,NA,sbdy ,NA,,,1926,1945,1926,1945,1926,1945
1000245,45,NCAR colorado USA_2_various_2,TD_13_NCAR_Sub_Daily_data_Global,NCAR_Via_MattMenne,,Dombas Norway,62.08,9.12,646,,Norway,,WMO Resolution 40,raw,NA,NA,sbdy ,NA,,,1926,1945,1926,1945,1926,1945
1000245,702,NCAR colorado USA_2_various_2,TD_13_NCAR_Sub_Daily_data_Global,NCAR_Via_MattMenne,,Kirkenes Norway,69.72,29.9,104,,Norway,,WMO Resolution 40,raw,NA,NA,sbdy ,NA,,,1926,1945,1926,1945,1926,1945
1000245,715,NCAR colorado USA_2_various_2,TD_13_NCAR_Sub_Daily_data_Global,NCAR_Via_MattMenne,,Hammerfest Norway,70.67,23.68,18,,Norway,,WMO Resolution 40,raw,NA,NA,sbdy ,NA,,,1926,1945,1926,1945,1926,1945
1000245,739,NCAR colorado USA_2_various_2,TD_13_NCAR_Sub_Daily_data_Global,NCAR_Via_MattMenne,,Bardufoss Norway,69.07,18.52,82,,Norway,,WMO Resolution 40,raw,NA,NA,sbdy ,NA,,,1926,1945,1926,1945,1926,1945
1000245,774,NCAR colorado USA_2_various_2,TD_13_NCAR_Sub_Daily_data_Global,NCAR_Via_MattMenne,,Bodo Norway,67.28,14.43,17,,Norway,,WMO Resolution 40,raw,NA,NA,sbdy ,NA,,,1926,1945,1926,1945,1926,1945
1000245,794,NCAR colorado USA_2_various_2,TD_13_NCAR_Sub_Daily_data_Global,NCAR_Via_MattMenne,,Hattfjelldal Norway,65.6,14,221,,Norway,,WMO Resolution 40,raw,NA,NA,sbdy ,NA,,,1926,1945,1926,1945,1926,1945
1000245,814,NCAR colorado USA_2_various_2,TD_13_NCAR_Sub_Daily_data_Global,NCAR_Via_MattMenne,,Vaernes Norway,63.47,10.93,149,,Norway,,WMO Resolution 40,raw,NA,NA,sbdy ,NA,,,1926,1945,1926,1945,1926,1945
1000245,888,NCAR colorado USA_2_various_2,TD_13_NCAR_Sub_Daily_data_Global,NCAR_Via_MattMenne,,Stavanger Sola Norway,58.88,5.63,7,,Norway,,WMO Resolution 40,raw,NA,NA,sbdy ,NA,,,1926,1945,1926,1945,1926,1945
1000245,906,NCAR colorado USA_2_various_2,TD_13_NCAR_Sub_Daily_data_Global,NCAR_Via_MattMenne,,Kjevik Kristiansand Norway,58.2,8.08,14,,Norway,,WMO Resolution 40,raw,NA,NA,sbdy ,NA,,,1926,1945,1926,1945,1926,1945
1000245,936,NCAR colorado USA_2_various_2,TD_13_NCAR_Sub_Daily_data_Global,NCAR_Via_MattMenne,,Gardermoen Norway,60.2,11.08,202,,Norway,,WMO Resolution 40,raw,NA,NA,sbdy ,NA,,,1926,1945,1926,1945,1926,1945
1000245,5050,NCAR colorado USA_2_various_2,TD_13_NCAR_Sub_Daily_data_Global,NCAR_Via_MattMenne,,Haparanda Sweden,65.83,24.15,9,,Sweden,,WMO Resolution 40,raw,NA,NA,sbdy ,NA,,,1926,1945,1926,1945,1926,1945
1000245,5051,NCAR colorado USA_2_various_2,TD_13_NCAR_Sub_Daily_data_Global,NCAR_Via_MattMenne,,Ostersund Sweden,63.18,14.65,320,,Sweden,,WMO Resolution 40,raw,NA,NA,sbdy ,NA,,,1926,1945,1926,1945,1926,1945
1000245,5052,NCAR colorado USA_2_various_2,TD_13_NCAR_Sub_Daily_data_Global,NCAR_Via_MattMenne,,Karlstad Sweden,59.38,13.5,53,,Sweden,,WMO Resolution 40,raw,NA,NA,sbdy ,NA,,,1926,1945,1926,1945,1926,1945
1000245,5053,NCAR colorado USA_2_various_2,TD_13_NCAR_Sub_Daily_data_Global,NCAR_Via_MattMenne,,Jonkoping Sweden,57.78,14.17,97,,Sweden,,WMO Resolution 40,raw,NA,NA,sbdy ,NA,,,1926,1945,1926,1945,1926,1945
1000245,5054,NCAR colorado USA_2_various_2,TD_13_NCAR_Sub_Daily_data_Global,NCAR_Via_MattMenne,,Visby Sweden,57.65,18.3,35,,Sweden,,WMO Resolution 40,raw,NA,NA,sbdy ,NA,,,1926,1945,1926,1945,1926,1945
1000245,5055,NCAR colorado USA_2_various_2,TD_13_NCAR_Sub_Daily_data_Global,NCAR_Via_MattMenne,,Riksgransen Sweden,68.42,18.12,507,,Sweden,,WMO Resolution 40,raw,NA,NA,sbdy ,NA,,,1926,1945,1926,1945,1926,1945
1000245,5056,NCAR colorado USA_2_various_2,TD_13_NCAR_Sub_Daily_data_Global,NCAR_Via_MattMenne,,Stensele Sweden,65.07,17.17,327,,Sweden,,WMO Resolution 40,raw,NA,NA,sbdy ,NA,,,1926,1945,1926,1945,1926,1945
1000245,5057,NCAR colorado USA_2_various_2,TD_13_NCAR_Sub_Daily_data_Global,NCAR_Via_MattMenne,,Harnosand Sweden,62.62,17.95,9,,Sweden,,WMO Resolution 40,raw,NA,NA,sbdy ,NA,,,1926,1945,1926,1945,1926,1945
1000245,5058,NCAR colorado USA_2_various_2,TD_13_NCAR_Sub_Daily_data_Global,NCAR_Via_MattMenne,,Sarna Sweden,61.68,13.12,450,,Sweden,,WMO Resolution 40,raw,NA,NA,sbdy ,NA,,,1926,1945,1926,1945,1926,1945
1000245,5059,NCAR colorado USA_2_various_2,TD_13_NCAR_Sub_Daily_data_Global,NCAR_Via_MattMenne,,Stockholm Sweden,59.35,17.95,10,,Sweden,,WMO Resolution 40,raw,NA,NA,sbdy ,NA,,,1926,1945,1926,1945,1926,1945
1000245,5060,NCAR colorado USA_2_various_2,TD_13_NCAR_Sub_Daily_data_Global,NCAR_Via_MattMenne,,Kalmar Sweden,56.65,16.37,7,,Sweden,,WMO Resolution 40,raw,NA,NA,sbdy ,NA,,,1926,1945,1926,1945,1926,1945
1000245,5061,NCAR colorado USA_2_various_2,TD_13_NCAR_Sub_Daily_data_Global,NCAR_Via_MattMenne,,Gallivare Sweden,67.13,20.67,364,,Sweden,,WMO Resolution 40,raw,NA,NA,sbdy ,NA,,,1926,1945,1926,1945,1926,1945
1000245,5062,NCAR colorado USA_2_various_2,TD_13_NCAR_Sub_Daily_data_Global,NCAR_Via_MattMenne,,Bjuroklubb Sweden,64.47,21.57,35,,Sweden,,WMO Resolution 40,raw,NA,NA,sbdy ,NA,,,1926,1945,1926,1945,1926,1945
1000245,5063,NCAR colorado USA_2_various_2,TD_13_NCAR_Sub_Daily_data_Global,NCAR_Via_MattMenne,,Storlien Sweden,63.32,12.1,597,,Sweden,,WMO Resolution 40,raw,NA,NA,sbdy ,NA,,,1926,1945,1926,1945,1926,1945
1000245,5065,NCAR colorado USA_2_various_2,TD_13_NCAR_Sub_Daily_data_Global,NCAR_Via_MattMenne,,Olands Norra Udde Sweden,57.37,17.1,4,,Sweden,,WMO Resolution 40,raw,NA,NA,sbdy ,NA,,,1926,1945,1926,1945,1926,1945
1000245,5067,NCAR colorado USA_2_various_2,TD_13_NCAR_Sub_Daily_data_Global,NCAR_Via_MattMenne,,Falun Sweden,60.62,15.63,121,,Sweden,,WMO Resolution 40,raw,NA,NA,sbdy ,NA,,,1926,1945,1926,1945,1926,1945
1000245,5069,NCAR colorado USA_2_various_2,TD_13_NCAR_Sub_Daily_data_Global,NCAR_Via_MattMenne,,Karesuando Sweden,68.45,22.5,332,,Finland,,WMO Resolution 40,raw,NA,NA,sbdy ,NA,,,1926,1945,1926,1945,1926,1945
1000245,5070,NCAR colorado USA_2_various_2,TD_13_NCAR_Sub_Daily_data_Global,NCAR_Via_MattMenne,,Holmogadd Sweden,63.58,20.75,6,,Sweden,,WMO Resolution 40,raw,NA,NA,sbdy ,NA,,,1926,1945,1926,1945,1926,1945
1000245,5071,NCAR colorado USA_2_various_2,TD_13_NCAR_Sub_Daily_data_Global,NCAR_Via_MattMenne,,Orebro Sweden,59.27,15.22,32,,Sweden,,WMO Resolution 40,raw,NA,NA,sbdy ,NA,,,1926,1945,1926,1945,1926,1945
1000245,5074,NCAR colorado USA_2_various_2,TD_13_NCAR_Sub_Daily_data_Global,NCAR_Via_MattMenne,,Sveg Sweden,62.05,14.42,362,,Sweden,,WMO Resolution 40,raw,NA,NA,sbdy ,NA,,,1926,1945,1926,1945,1926,1945
1000245,5075,NCAR colorado USA_2_various_2,TD_13_NCAR_Sub_Daily_data_Global,NCAR_Via_MattMenne,,Landsort Sweden,58.73,17.87,13,,Sweden,,WMO Resolution 40,raw,NA,NA,sbdy ,NA,,,1926,1945,1926,1945,1926,1945
1000245,5076,NCAR colorado USA_2_various_2,TD_13_NCAR_Sub_Daily_data_Global,NCAR_Via_MattMenne,,Hoburg Sweden,56.92,18.15,39,,Sweden,,WMO Resolution 40,raw,NA,NA,sbdy ,NA,,,1926,1945,1926,1945,1926,1945
1000245,5077,NCAR colorado USA_2_various_2,TD_13_NCAR_Sub_Daily_data_Global,NCAR_Via_MattMenne,,Suorva Sweden,67.53,18.23,414,,Sweden,,WMO Resolution 40,raw,NA,NA,sbdy ,NA,,,1926,1945,1926,1945,1926,1945
1000245,5078,NCAR colorado USA_2_various_2,TD_13_NCAR_Sub_Daily_data_Global,NCAR_Via_MattMenne,,Bjuraker Sweden,61.87,16.57,71,,Sweden,,WMO Resolution 40,raw,NA,NA,sbdy ,NA,,,1926,1945,1926,1945,1926,1945
1000245,5079,NCAR colorado USA_2_various_2,TD_13_NCAR_Sub_Daily_data_Global,NCAR_Via_MattMenne,,Gotska Sandon Sweden,58.38,19.18,11,,Sweden,,WMO Resolution 40,raw,NA,NA,sbdy ,NA,,,1926,1945,1926,1945,1926,1945
1000245,5080,NCAR colorado USA_2_various_2,TD_13_NCAR_Sub_Daily_data_Global,NCAR_Via_MattMenne,,Vaxjo Sweden,56.38,14.82,172,,Sweden,,WMO Resolution 40,raw,NA,NA,sbdy ,NA,,,1926,1945,1926,1945,1926,1945
1000245,5081,NCAR colorado USA_2_various_2,TD_13_NCAR_Sub_Daily_data_Global,NCAR_Via_MattMenne,,Kvikkjokk Sweden,66.95,17.75,329,,Sweden,,WMO Resolution 40,raw,NA,NA,sbdy ,NA,,,1926,1945,1926,1945,1926,1945
1000245,5082,NCAR colorado USA_2_various_2,TD_13_NCAR_Sub_Daily_data_Global,NCAR_Via_MattMenne,,Knon Sweden,60.17,13.78,192,,Sweden,,WMO Resolution 40,raw,NA,NA,sbdy ,NA,,,1926,1945,1926,1945,1926,1945
1000245,5083,NCAR colorado USA_2_various_2,TD_13_NCAR_Sub_Daily_data_Global,NCAR_Via_MattMenne,,Skara Sweden,58.4,13.45,114,,Sweden,,WMO Resolution 40,raw,NA,NA,sbdy ,NA,,,1926,1945,1926,1945,1926,1945
1000245,5084,NCAR colorado USA_2_various_2,TD_13_NCAR_Sub_Daily_data_Global,NCAR_Via_MattMenne,,Halmstad Sweden,56.67,12.87,10,,Sweden,,WMO Resolution 40,raw,NA,NA,sbdy ,NA,,,1926,1945,1926,1945,1926,1945
1000245,5086,NCAR colorado USA_2_various_2,TD_13_NCAR_Sub_Daily_data_Global,NCAR_Via_MattMenne,,Upsala Sweden,59.85,17.63,24,,Sweden,,WMO Resolution 40,raw,NA,NA,sbdy ,NA,,,1926,1945,1926,1945,1926,1945
1000245,5087,NCAR colorado USA_2_various_2,TD_13_NCAR_Sub_Daily_data_Global,NCAR_Via_MattMenne,,Vanersborg Sweden,58.38,12.33,53,,Sweden,,WMO Resolution 40,raw,NA,NA,sbdy ,NA,,,1926,1945,1926,1945,1926,1945
1000245,5088,NCAR colorado USA_2_various_2,TD_13_NCAR_Sub_Daily_data_Global,NCAR_Via_MattMenne,,Malmo Sweden,55.62,13.03,20,,Sweden,,WMO Resolution 40,raw,NA,NA,sbdy ,NA,,,1926,1945,1926,1945,1926,1945
1000245,5092,NCAR colorado USA_2_various_2,TD_13_NCAR_Sub_Daily_data_Global,NCAR_Via_MattMenne,,Ystad Sweden,55.43,13.82,4,,Sweden,,WMO Resolution 40,raw,NA,NA,sbdy ,NA,,,1926,1945,1926,1945,1926,1945
1000245,10101,NCAR colorado USA_2_various_2,TD_13_NCAR_Sub_Daily_data_Global,NCAR_Via_MattMenne,,Valentia Ireland,51.93,-10.25,9,,Ireland,,WMO Resolution 40,raw,NA,NA,sbdy ,NA,,,1926,1945,1926,1945,1926,1945
1000245,10104,NCAR colorado USA_2_various_2,TD_13_NCAR_Sub_Daily_data_Global,NCAR_Via_MattMenne,,Blacksod Point Ireland,54.1,-10.07,5,,Ireland,,WMO Resolution 40,raw,NA,NA,sbdy ,NA,,,1926,1945,1926,1945,1926,1945
1000245,10105,NCAR colorado USA_2_various_2,TD_13_NCAR_Sub_Daily_data_Global,NCAR_Via_MattMenne,,Malin Head Northern Ireland,55.37,-7.33,25,,Ireland,,WMO Resolution 40,raw,NA,NA,sbdy ,NA,,,1926,1945,1926,1945,1926,1945
1000245,10110,NCAR colorado USA_2_various_2,TD_13_NCAR_Sub_Daily_data_Global,NCAR_Via_MattMenne,,Lerwick Shetland Is Great Britain,60.13,-1.18,47,,United Kingdom,,WMO Resolution 40,raw,NA,NA,sbdy ,NA,,,1926,1945,1926,1945,1926,1945
1000245,10111,NCAR colorado USA_2_various_2,TD_13_NCAR_Sub_Daily_data_Global,NCAR_Via_MattMenne,,Stornoway Hebrides Is Great Britain,58.18,-6.35,24,,United Kingdom,,WMO Resolution 40,raw,NA,NA,sbdy ,NA,,,1926,1945,1926,1945,1926,1945
1000245,10113,NCAR colorado USA_2_various_2,TD_13_NCAR_Sub_Daily_data_Global,NCAR_Via_MattMenne,,Tiree Hebrides Is Great Britain,56.48,-6.87,6,,United Kingdom,,WMO Resolution 40,raw,NA,NA,sbdy ,NA,,,1926,1945,1926,1945,1926,1945
1000245,10116,NCAR colorado USA_2_various_2,TD_13_NCAR_Sub_Daily_data_Global,NCAR_Via_MattMenne,,Aberdeen Scotland,57.17,-2.1,78,,United Kingdom,,WMO Resolution 40,raw,NA,NA,sbdy ,NA,,,1926,1945,1926,1945,1926,1945
1000245,10124,NCAR colorado USA_2_various_2,TD_13_NCAR_Sub_Daily_data_Global,NCAR_Via_MattMenne,,Tynemouth England,55.02,-1.42,32,,United Kingdom,,WMO Resolution 40,raw,NA,NA,sbdy ,NA,,,1926,1945,1926,1945,1926,1945
1000245,10126,NCAR colorado USA_2_various_2,TD_13_NCAR_Sub_Daily_data_Global,NCAR_Via_MattMenne,,Holyhead Wales,53.32,-4.62,7,,United Kingdom,,WMO Resolution 40,raw,NA,NA,sbdy ,NA,,,1926,1945,1926,1945,1926,1945
1000245,10137,NCAR colorado USA_2_various_2,TD_13_NCAR_Sub_Daily_data_Global,NCAR_Via_MattMenne,,Gorleston England,52.58,1.72,1,,United Kingdom,,WMO Resolution 40,raw,NA,NA,sbdy ,NA,,,1926,1945,1926,1945,1926,1945
1000245,10151,NCAR colorado USA_2_various_2,TD_13_NCAR_Sub_Daily_data_Global,NCAR_Via_MattMenne,,Croydon England,51.35,-0.12,66,,United Kingdom,,WMO Resolution 40,raw,NA,NA,sbdy ,NA,,,1926,1945,1926,1945,1926,1945
1000245,10158,NCAR colorado USA_2_various_2,TD_13_NCAR_Sub_Daily_data_Global,NCAR_Via_MattMenne,,Scilly England,49.93,-6.3,49,,United Kingdom,,WMO Resolution 40,raw,NA,NA,sbdy ,NA,,,1926,1945,1926,1945,1926,1945
1000245,10168,NCAR colorado USA_2_various_2,TD_13_NCAR_Sub_Daily_data_Global,NCAR_Via_MattMenne,,Guernsey Channel Islands Great Britain,49.45,-2.55,53,,Guernsey,,WMO Resolution 40,raw,NA,NA,sbdy ,NA,,,1926,1945,1926,1945,1926,1945
1000245,13130,NCAR colorado USA_2_various_2,TD_13_NCAR_Sub_Daily_data_Global,NCAR_Via_MattMenne,,Salum Egypt,31.55,25.18,174,,Egypt,,WMO Resolution 40,raw,NA,NA,sbdy ,NA,,,1926,1945,1926,1945,1926,1945
1000245,13131,NCAR colorado USA_2_various_2,TD_13_NCAR_Sub_Daily_data_Global,NCAR_Via_MattMenne,,Mersa Matruh Egypt,31.37,27.23,7,,Egypt,,WMO Resolution 40,raw,NA,NA,sbdy ,NA,,,1926,1945,1926,1945,1926,1945
1000245,13132,NCAR colorado USA_2_various_2,TD_13_NCAR_Sub_Daily_data_Global,NCAR_Via_MattMenne,,Alexandria Egypt,31.2,29.88,32,,Egypt,,WMO Resolution 40,raw,NA,NA,sbdy ,NA,,,1926,1945,1926,1945,1926,1945
1000245,13133,NCAR colorado USA_2_various_2,TD_13_NCAR_Sub_Daily_data_Global,NCAR_Via_MattMenne,,Aboukir Egypt (Obu Qir),31.3,30.1,11,,Egypt,,WMO Resolution 40,raw,NA,NA,sbdy ,NA,,,1926,1945,1926,1945,1926,1945
1000245,13135,NCAR colorado USA_2_various_2,TD_13_NCAR_Sub_Daily_data_Global,NCAR_Via_MattMenne,,El Arish Egypt,31.12,33.77,10,,Egypt,,WMO Resolution 40,raw,NA,NA,sbdy ,NA,,,1926,1945,1926,1945,1926,1945
1000245,13140,NCAR colorado USA_2_various_2,TD_13_NCAR_Sub_Daily_data_Global,NCAR_Via_MattMenne,,Heliopolis Egypt,30.08,31.37,50,,Egypt,,WMO Resolution 40,raw,NA,NA,sbdy ,NA,,,1926,1945,1926,1945,1926,1945
1000245,13142,NCAR colorado USA_2_various_2,TD_13_NCAR_Sub_Daily_data_Global,NCAR_Via_MattMenne,,Ismailia Egypt,30.6,32.23,13,,Egypt,,WMO Resolution 40,raw,NA,NA,sbdy ,NA,,,1926,1945,1926,1945,1926,1945
1000245,13143,NCAR colorado USA_2_various_2,TD_13_NCAR_Sub_Daily_data_Global,NCAR_Via_MattMenne,,Helwan Egypt,29.87,31.33,115,,Egypt,,WMO Resolution 40,raw,NA,NA,sbdy ,NA,,,1926,1945,1926,1945,1926,1945
1000245,13145,NCAR colorado USA_2_various_2,TD_13_NCAR_Sub_Daily_data_Global,NCAR_Via_MattMenne,,Tor Egypt (Et Tor),28.23,33.62,2,,Egypt,,WMO Resolution 40,raw,NA,NA,sbdy ,NA,,,1926,1945,1926,1945,1926,1945
1000245,13147,NCAR colorado USA_2_various_2,TD_13_NCAR_Sub_Daily_data_Global,NCAR_Via_MattMenne,,Quseir Egypt,26.13,34.3,7,,Egypt,,WMO Resolution 40,raw,NA,NA,sbdy ,NA,,,1926,1945,1926,1945,1926,1945
1000245,13148,NCAR colorado USA_2_various_2,TD_13_NCAR_Sub_Daily_data_Global,NCAR_Via_MattMenne,,Siwa Egypt,29.2,25.48,-14,,Egypt,,WMO Resolution 40,raw,NA,NA,sbdy ,NA,,,1926,1945,1926,1945,1926,1945
1000245,13152,NCAR colorado USA_2_various_2,TD_13_NCAR_Sub_Daily_data_Global,NCAR_Via_MattMenne,,Dakhla Egypt,25.48,29,121,,Egypt,,WMO Resolution 40,raw,NA,NA,sbdy ,NA,,,1926,1945,1926,1945,1926,1945
1000245,13154,NCAR colorado USA_2_various_2,TD_13_NCAR_Sub_Daily_data_Global,NCAR_Via_MattMenne,,Minyat Egypt (El Minya),28.1,30.77,42,,Egypt,,WMO Resolution 40,raw,NA,NA,sbdy ,NA,,,1926,1945,1926,1945,1926,1945
1000245,13155,NCAR colorado USA_2_various_2,TD_13_NCAR_Sub_Daily_data_Global,NCAR_Via_MattMenne,,Asyut Egypt,27.18,31.22,54,,Egypt,,WMO Resolution 40,raw,NA,NA,sbdy ,NA,,,1926,1945,1926,1945,1926,1945
1000245,13156,NCAR colorado USA_2_various_2,TD_13_NCAR_Sub_Daily_data_Global,NCAR_Via_MattMenne,,Qenar Egypt (Qina),26.17,32.72,74,,Egypt,,WMO Resolution 40,raw,NA,NA,sbdy ,NA,,,1926,1945,1926,1945,1926,1945
1000245,13158,NCAR colorado USA_2_various_2,TD_13_NCAR_Sub_Daily_data_Global,NCAR_Via_MattMenne,,Aswan Egypt,24.03,32.88,110,,Egypt,,WMO Resolution 40,raw,NA,NA,sbdy ,NA,,,1926,1945,1926,1945,1926,1945
1000245,17170,NCAR colorado USA_2_various_2,TD_13_NCAR_Sub_Daily_data_Global,NCAR_Via_MattMenne,,Reykjavik Iceland,64.15,-21.95,15,,Iceland,,WMO Resolution 40,raw,NA,NA,sbdy ,NA,,,1926,1945,1926,1945,1926,1945
1000245,17172,NCAR colorado USA_2_various_2,TD_13_NCAR_Sub_Daily_data_Global,NCAR_Via_MattMenne,,Bolungarvik Iceland,66.17,-23.22,6,,Iceland,,WMO Resolution 40,raw,NA,NA,sbdy ,NA,,,1926,1945,1926,1945,1926,1945
1000245,17174,NCAR colorado USA_2_various_2,TD_13_NCAR_Sub_Daily_data_Global,NCAR_Via_MattMenne,,Akureyri Iceland,65.68,-18.08,7,,Iceland,,WMO Resolution 40,raw,NA,NA,sbdy ,NA,,,1926,1945,1926,1945,1926,1945
1000245,17176,NCAR colorado USA_2_various_2,TD_13_NCAR_Sub_Daily_data_Global,NCAR_Via_MattMenne,,Seydisfjord-Dalatangi Iceland,65.27,-13.58,7,,Iceland,,WMO Resolution 40,raw,NA,NA,sbdy ,NA,,,1926,1945,1926,1945,1926,1945
1000245,17178,NCAR colorado USA_2_various_2,TD_13_NCAR_Sub_Daily_data_Global,NCAR_Via_MattMenne,,Vestmannaeyjar Iceland,63.4,-20.28,121,,Iceland,,WMO Resolution 40,raw,NA,NA,sbdy ,NA,,,1926,1945,1926,1945,1926,1945
1000245,18034,NCAR colorado USA_2_various_2,TD_13_NCAR_Sub_Daily_data_Global,NCAR_Via_MattMenne,,Grove Denmark,56.3,9.07,50,,Denmark,,WMO Resolution 40,raw,NA,NA,sbdy ,NA,,,1926,1945,1926,1945,1926,1945
1000245,18181,NCAR colorado USA_2_various_2,TD_13_NCAR_Sub_Daily_data_Global,NCAR_Via_MattMenne,,Kopenhagen Denmark,55.62,12.65,4,,Denmark,,WMO Resolution 40,raw,NA,NA,sbdy ,NA,,,1926,1945,1926,1945,1926,1945
1000245,18182,NCAR colorado USA_2_various_2,TD_13_NCAR_Sub_Daily_data_Global,NCAR_Via_MattMenne,,Skagen Denmark,57.73,10.63,3,,Denmark,,WMO Resolution 40,raw,NA,NA,sbdy ,NA,,,1926,1945,1926,1945,1926,1945
1000245,18183,NCAR colorado USA_2_various_2,TD_13_NCAR_Sub_Daily_data_Global,NCAR_Via_MattMenne,,Hanstholm Denmark,57.12,8.6,46,,Denmark,,WMO Resolution 40,raw,NA,NA,sbdy ,NA,,,1926,1945,1926,1945,1926,1945
1000245,18184,NCAR colorado USA_2_various_2,TD_13_NCAR_Sub_Daily_data_Global,NCAR_Via_MattMenne,,Blaavandshuk Denmark,55.55,8.08,14,,Denmark,,WMO Resolution 40,raw,NA,NA,sbdy ,NA,,,1926,1945,1926,1945,1926,1945
1000245,18185,NCAR colorado USA_2_various_2,TD_13_NCAR_Sub_Daily_data_Global,NCAR_Via_MattMenne,,Hammeren Bornholm I Denmark,55.28,14.77,77,,Denmark,,WMO Resolution 40,raw,NA,NA,sbdy ,NA,,,1926,1945,1926,1945,1926,1945
1000245,18187,NCAR colorado USA_2_various_2,TD_13_NCAR_Sub_Daily_data_Global,NCAR_Via_MattMenne,,Aalborg East Denmark,57.17,10.1,3,,Denmark,,WMO Resolution 40,raw,NA,NA,sbdy ,NA,,,1926,1945,1926,1945,1926,1945
1000245,18190,NCAR colorado USA_2_various_2,TD_13_NCAR_Sub_Daily_data_Global,NCAR_Via_MattMenne,,Scoresbysund Greenland,70.48,-21.97,70,,Greenland,,WMO Resolution 40,raw,NA,NA,sbdy ,NA,,,1926,1945,1926,1945,1926,1945
1000245,18191,NCAR colorado USA_2_various_2,TD_13_NCAR_Sub_Daily_data_Global,NCAR_Via_MattMenne,,Thorshavn Faroe Islands,62.05,-6.75,25,,Faroe Islands,,WMO Resolution 40,raw,NA,NA,sbdy ,NA,,,1926,1945,1926,1945,1926,1945
1000245,18196,NCAR colorado USA_2_various_2,TD_13_NCAR_Sub_Daily_data_Global,NCAR_Via_MattMenne,,Julianhaab Greenland,60.72,-46.05,64,,Greenland,,WMO Resolution 40,raw,NA,NA,sbdy ,NA,,,1926,1945,1926,1945,1926,1945
1000245,18199,NCAR colorado USA_2_various_2,TD_13_NCAR_Sub_Daily_data_Global,NCAR_Via_MattMenne,,Angmagssalik Greenland,65.6,-37.57,71,,Greenland,,WMO Resolution 40,raw,NA,NA,sbdy ,NA,,,1926,1945,1926,1945,1926,1945
1000245,18581,NCAR colorado USA_2_various_2,TD_13_NCAR_Sub_Daily_data_Global,NCAR_Via_MattMenne,,Vaerloese Denmark,55.77,12.32,18,,Denmark,,WMO Resolution 40,raw,NA,NA,sbdy ,NA,,,1926,1945,1926,1945,1926,1945
1000245,20003,NCAR colorado USA_2_various_2,TD_13_NCAR_Sub_Daily_data_Global,NCAR_Via_MattMenne,,Grenoble France (Eybens),45.17,5.73,324,,France,,WMO Resolution 40,raw,NA,NA,sbdy ,NA,,,1926,1945,1926,1945,1926,1945
1000245,20032,NCAR colorado USA_2_various_2,TD_13_NCAR_Sub_Daily_data_Global,NCAR_Via_MattMenne,,St Hilaire Du Touvet France,45.3,5.87,1153,,France,,WMO Resolution 40,raw,NA,NA,sbdy ,NA,,,1926,1945,1926,1945,1926,1945
1000245,20044,NCAR colorado USA_2_various_2,TD_13_NCAR_Sub_Daily_data_Global,NCAR_Via_MattMenne,,Guillestre France,44.67,6.65,994,,France,,WMO Resolution 40,raw,NA,NA,sbdy ,NA,,,1926,1945,1926,1945,1926,1945
1000245,20092,NCAR colorado USA_2_various_2,TD_13_NCAR_Sub_Daily_data_Global,NCAR_Via_MattMenne,,Creil France,49.27,2.65,85,,France,,WMO Resolution 40,raw,NA,NA,sbdy ,NA,,,1926,1945,1926,1945,1926,1945
1000245,20099,NCAR colorado USA_2_various_2,TD_13_NCAR_Sub_Daily_data_Global,NCAR_Via_MattMenne,,Amiens France,49.9,2.33,64,,France,,WMO Resolution 40,raw,NA,NA,sbdy ,NA,,,1926,1945,1926,1945,1926,1945
1000245,20200,NCAR colorado USA_2_various_2,TD_13_NCAR_Sub_Daily_data_Global,NCAR_Via_MattMenne,,Reims France,49.25,4.08,86,,France,,WMO Resolution 40,raw,NA,NA,sbdy ,NA,,,1926,1945,1926,1945,1926,1945
1000245,20201,NCAR colorado USA_2_various_2,TD_13_NCAR_Sub_Daily_data_Global,NCAR_Via_MattMenne,,Rochefort France,45.92,-0.98,3,,France,,WMO Resolution 40,raw,NA,NA,sbdy ,NA,,,1926,1945,1926,1945,1926,1945
1000245,20202,NCAR colorado USA_2_various_2,TD_13_NCAR_Sub_Daily_data_Global,NCAR_Via_MattMenne,,Biarritz France,43.38,-1.75,28,,France,,WMO Resolution 40,raw,NA,NA,sbdy ,NA,,,1926,1945,1926,1945,1926,1945
1000245,20203,NCAR colorado USA_2_various_2,TD_13_NCAR_Sub_Daily_data_Global,NCAR_Via_MattMenne,,Bordeaux France,44.83,-0.7,47,,France,,WMO Resolution 40,raw,NA,NA,sbdy ,NA,,,1926,1945,1926,1945,1926,1945
1000245,20204,NCAR colorado USA_2_various_2,TD_13_NCAR_Sub_Daily_data_Global,NCAR_Via_MattMenne,,Beavais France,49.45,2.1,99,,France,,WMO Resolution 40,raw,NA,NA,sbdy ,NA,,,1926,1945,1926,1945,1926,1945
1000245,20205,NCAR colorado USA_2_various_2,TD_13_NCAR_Sub_Daily_data_Global,NCAR_Via_MattMenne,,Cherbourg France,49.67,-1.68,14,,France,,WMO Resolution 40,raw,NA,NA,sbdy ,NA,,,1926,1945,1926,1945,1926,1945
1000245,20206,NCAR colorado USA_2_various_2,TD_13_NCAR_Sub_Daily_data_Global,NCAR_Via_MattMenne,,Clermont-Ferrand France,45.78,3.15,323,,France,,WMO Resolution 40,raw,NA,NA,sbdy ,NA,,,1926,1945,1926,1945,1926,1945
1000245,20207,NCAR colorado USA_2_various_2,TD_13_NCAR_Sub_Daily_data_Global,NCAR_Via_MattMenne,,Dijon France (Longvic),47.27,5.08,222,,France,,WMO Resolution 40,raw,NA,NA,sbdy ,NA,,,1926,1945,1926,1945,1926,1945
1000245,20208,NCAR colorado USA_2_various_2,TD_13_NCAR_Sub_Daily_data_Global,NCAR_Via_MattMenne,,St Inglevert France,50.87,1.75,122,,France,,WMO Resolution 40,raw,NA,NA,sbdy ,NA,,,1926,1945,1926,1945,1926,1945
1000245,20210,NCAR colorado USA_2_various_2,TD_13_NCAR_Sub_Daily_data_Global,NCAR_Via_MattMenne,,Lyon France,45.73,4.92,197,,France,,WMO Resolution 40,raw,NA,NA,sbdy ,NA,,,1926,1945,1926,1945,1926,1945
1000245,20211,NCAR colorado USA_2_various_2,TD_13_NCAR_Sub_Daily_data_Global,NCAR_Via_MattMenne,,Brest France,48.33,-4.77,32,,France,,WMO Resolution 40,raw,NA,NA,sbdy ,NA,,,1926,1945,1926,1945,1926,1945
1000245,20212,NCAR colorado USA_2_various_2,TD_13_NCAR_Sub_Daily_data_Global,NCAR_Via_MattMenne,,Nimes France,43.85,4.4,60,,France,,WMO Resolution 40,raw,NA,NA,sbdy ,NA,,,1926,1945,1926,1945,1926,1945
1000245,20213,NCAR colorado USA_2_various_2,TD_13_NCAR_Sub_Daily_data_Global,NCAR_Via_MattMenne,,Avignon France,44,4.75,56,,France,,WMO Resolution 40,raw,NA,NA,sbdy ,NA,,,1926,1945,1926,1945,1926,1945
1000245,20214,NCAR colorado USA_2_various_2,TD_13_NCAR_Sub_Daily_data_Global,NCAR_Via_MattMenne,,Paris France,48.87,2.3,32,,France,,WMO Resolution 40,raw,NA,NA,sbdy ,NA,,,1926,1945,1926,1945,1926,1945
1000245,20215,NCAR colorado USA_2_various_2,TD_13_NCAR_Sub_Daily_data_Global,NCAR_Via_MattMenne,,Le Bourget France,48.95,2.43,46,,France,,WMO Resolution 40,raw,NA,NA,sbdy ,NA,,,1926,1945,1926,1945,1926,1945
1000245,20216,NCAR colorado USA_2_various_2,TD_13_NCAR_Sub_Daily_data_Global,NCAR_Via_MattMenne,,Perpignan France,42.73,2.87,45,,France,,WMO Resolution 40,raw,NA,NA,sbdy ,NA,,,1926,1945,1926,1945,1926,1945
1000245,20217,NCAR colorado USA_2_various_2,TD_13_NCAR_Sub_Daily_data_Global,NCAR_Via_MattMenne,,Le Talut France,47.3,-3.27,43,,France,,WMO Resolution 40,raw,NA,NA,sbdy ,NA,,,1926,1945,1926,1945,1926,1945
1000245,20218,NCAR colorado USA_2_various_2,TD_13_NCAR_Sub_Daily_data_Global,NCAR_Via_MattMenne,,Rennes France,48.07,-1.75,39,,France,,WMO Resolution 40,raw,NA,NA,sbdy ,NA,,,1926,1945,1926,1945,1926,1945
1000245,20219,NCAR colorado USA_2_various_2,TD_13_NCAR_Sub_Daily_data_Global,NCAR_Via_MattMenne,,Strasbourg France,48.55,7.63,153,,France,,WMO Resolution 40,raw,NA,NA,sbdy ,NA,,,1926,1945,1926,1945,1926,1945
1000245,20221,NCAR colorado USA_2_various_2,TD_13_NCAR_Sub_Daily_data_Global,NCAR_Via_MattMenne,,Toulouse France,43.55,1.38,163,,France,,WMO Resolution 40,raw,NA,NA,sbdy ,NA,,,1926,1945,1926,1945,1926,1945
1000245,20222,NCAR colorado USA_2_various_2,TD_13_NCAR_Sub_Daily_data_Global,NCAR_Via_MattMenne,,Tours France,47.42,0.78,111,,France,,WMO Resolution 40,raw,NA,NA,sbdy ,NA,,,1926,1945,1926,1945,1926,1945
1000245,20224,NCAR colorado USA_2_various_2,TD_13_NCAR_Sub_Daily_data_Global,NCAR_Via_MattMenne,,Sete France,43.4,3.68,179,,France,,WMO Resolution 40,raw,NA,NA,sbdy ,NA,,,1926,1945,1926,1945,1926,1945
1000245,20225,NCAR colorado USA_2_various_2,TD_13_NCAR_Sub_Daily_data_Global,NCAR_Via_MattMenne,,Pau France,43.37,-0.4,189,,France,,WMO Resolution 40,raw,NA,NA,sbdy ,NA,,,1926,1945,1926,1945,1926,1945
1000245,20226,NCAR colorado USA_2_various_2,TD_13_NCAR_Sub_Daily_data_Global,NCAR_Via_MattMenne,,Ajaccio Corsica,41.92,8.75,7,,France,,WMO Resolution 40,raw,NA,NA,sbdy ,NA,,,1926,1945,1926,1945,1926,1945
1000245,20227,NCAR colorado USA_2_various_2,TD_13_NCAR_Sub_Daily_data_Global,NCAR_Via_MattMenne,,Mont-De-Marsan France,43.9,-0.5,63,,France,,WMO Resolution 40,raw,NA,NA,sbdy ,NA,,,1926,1945,1926,1945,1926,1945
1000245,20229,NCAR colorado USA_2_various_2,TD_13_NCAR_Sub_Daily_data_Global,NCAR_Via_MattMenne,,La Hague France,49.72,-1.85,10,,France,,WMO Resolution 40,raw,NA,NA,sbdy ,NA,,,1926,1945,1926,1945,1926,1945
1000245,20230,NCAR colorado USA_2_various_2,TD_13_NCAR_Sub_Daily_data_Global,NCAR_Via_MattMenne,,Le Havre France,49.52,0.12,17,,France,,WMO Resolution 40,raw,NA,NA,sbdy ,NA,,,1926,1945,1926,1945,1926,1945
1000245,20231,NCAR colorado USA_2_various_2,TD_13_NCAR_Sub_Daily_data_Global,NCAR_Via_MattMenne,,Marseille-Marignane France,43.42,5.2,11,,France,,WMO Resolution 40,raw,NA,NA,sbdy ,NA,,,1926,1945,1926,1945,1926,1945
1000245,20232,NCAR colorado USA_2_various_2,TD_13_NCAR_Sub_Daily_data_Global,NCAR_Via_MattMenne,,Metz France,49.08,6.13,189,,France,,WMO Resolution 40,raw,NA,NA,sbdy ,NA,,,1926,1945,1926,1945,1926,1945
1000245,20233,NCAR colorado USA_2_various_2,TD_13_NCAR_Sub_Daily_data_Global,NCAR_Via_MattMenne,,Montelimar France,44.58,4.72,74,,France,,WMO Resolution 40,raw,NA,NA,sbdy ,NA,,,1926,1945,1926,1945,1926,1945
1000245,20234,NCAR colorado USA_2_various_2,TD_13_NCAR_Sub_Daily_data_Global,NCAR_Via_MattMenne,,Romilly France,48.5,3.75,77,,France,,WMO Resolution 40,raw,NA,NA,sbdy ,NA,,,1926,1945,1926,1945,1926,1945
1000245,20235,NCAR colorado USA_2_various_2,TD_13_NCAR_Sub_Daily_data_Global,NCAR_Via_MattMenne,,Valenciennes France,50.15,3.27,97,,France,,WMO Resolution 40,raw,NA,NA,sbdy ,NA,,,1926,1945,1926,1945,1926,1945
1000245,20237,NCAR colorado USA_2_various_2,TD_13_NCAR_Sub_Daily_data_Global,NCAR_Via_MattMenne,,Nancy France,48.7,6.23,235,,France,,WMO Resolution 40,raw,NA,NA,sbdy ,NA,,,1926,1945,1926,1945,1926,1945
1000245,20238,NCAR colorado USA_2_various_2,TD_13_NCAR_Sub_Daily_data_Global,NCAR_Via_MattMenne,,Nantes France,47.18,-1.55,40,,France,,WMO Resolution 40,raw,NA,NA,sbdy ,NA,,,1926,1945,1926,1945,1926,1945
1000245,20239,NCAR colorado USA_2_various_2,TD_13_NCAR_Sub_Daily_data_Global,NCAR_Via_MattMenne,,Epinal France,48.17,6.42,379,,France,,WMO Resolution 40,raw,NA,NA,sbdy ,NA,,,1926,1945,1926,1945,1926,1945
1000245,20240,NCAR colorado USA_2_various_2,TD_13_NCAR_Sub_Daily_data_Global,NCAR_Via_MattMenne,,Antibes France,43.72,7.22,3,,France,,WMO Resolution 40,raw,NA,NA,sbdy ,NA,,,1926,1945,1926,1945,1926,1945
1000245,20241,NCAR colorado USA_2_various_2,TD_13_NCAR_Sub_Daily_data_Global,NCAR_Via_MattMenne,,Avord France,47.05,2.65,178,,France,,WMO Resolution 40,raw,NA,NA,sbdy ,NA,,,1926,1945,1926,1945,1926,1945
1000245,20242,NCAR colorado USA_2_various_2,TD_13_NCAR_Sub_Daily_data_Global,NCAR_Via_MattMenne,,Angouleme France,45.67,0.23,82,,France,,WMO Resolution 40,raw,NA,NA,sbdy ,NA,,,1926,1945,1926,1945,1926,1945
1000245,20243,NCAR colorado USA_2_various_2,TD_13_NCAR_Sub_Daily_data_Global,NCAR_Via_MattMenne,,Orleans France,48,1.8,128,,France,,WMO Resolution 40,raw,NA,NA,sbdy ,NA,,,1926,1945,1926,1945,1926,1945
1000245,20244,NCAR colorado USA_2_various_2,TD_13_NCAR_Sub_Daily_data_Global,NCAR_Via_MattMenne,,Poitiers France,46.58,0.32,125,,France,,WMO Resolution 40,raw,NA,NA,sbdy ,NA,,,1926,1945,1926,1945,1926,1945
1000245,20245,NCAR colorado USA_2_various_2,TD_13_NCAR_Sub_Daily_data_Global,NCAR_Via_MattMenne,,Le Puy En Velay France,45.05,3.88,714,,France,,WMO Resolution 40,raw,NA,NA,sbdy ,NA,,,1926,1945,1926,1945,1926,1945
1000245,20246,NCAR colorado USA_2_various_2,TD_13_NCAR_Sub_Daily_data_Global,NCAR_Via_MattMenne,,Puy De Dome France,45.77,2.97,1466,,France,,WMO Resolution 40,raw,NA,NA,sbdy ,NA,,,1926,1945,1926,1945,1926,1945
1000245,20248,NCAR colorado USA_2_various_2,TD_13_NCAR_Sub_Daily_data_Global,NCAR_Via_MattMenne,,Mont Ventoux France,44.17,5.28,1899,,France,,WMO Resolution 40,raw,NA,NA,sbdy ,NA,,,1926,1945,1926,1945,1926,1945
1000245,20249,NCAR colorado USA_2_various_2,TD_13_NCAR_Sub_Daily_data_Global,NCAR_Via_MattMenne,,Mont Aigoual France,44.12,3.58,1553,,France,,WMO Resolution 40,raw,NA,NA,sbdy ,NA,,,1926,1945,1926,1945,1926,1945
1000245,20251,NCAR colorado USA_2_various_2,TD_13_NCAR_Sub_Daily_data_Global,NCAR_Via_MattMenne,,La Courtine France,45.7,2.25,764,,France,,WMO Resolution 40,raw,NA,NA,sbdy ,NA,,,1926,1945,1926,1945,1926,1945
1000245,20252,NCAR colorado USA_2_various_2,TD_13_NCAR_Sub_Daily_data_Global,NCAR_Via_MattMenne,,Chateauroux France,46.82,1.77,153,,France,,WMO Resolution 40,raw,NA,NA,sbdy ,NA,,,1926,1945,1926,1945,1926,1945
1000245,20253,NCAR colorado USA_2_various_2,TD_13_NCAR_Sub_Daily_data_Global,NCAR_Via_MattMenne,,Romorantin France,47.3,1.68,82,,France,,WMO Resolution 40,raw,NA,NA,sbdy ,NA,,,1926,1945,1926,1945,1926,1945
1000245,20254,NCAR colorado USA_2_various_2,TD_13_NCAR_Sub_Daily_data_Global,NCAR_Via_MattMenne,,Chartres France,48.45,1.5,153,,France,,WMO Resolution 40,raw,NA,NA,sbdy ,NA,,,1926,1945,1926,1945,1926,1945
1000245,20255,NCAR colorado USA_2_various_2,TD_13_NCAR_Sub_Daily_data_Global,NCAR_Via_MattMenne,,Mourmelon France,49.12,4.35,131,,France,,WMO Resolution 40,raw,NA,NA,sbdy ,NA,,,1926,1945,1926,1945,1926,1945
1000245,20256,NCAR colorado USA_2_various_2,TD_13_NCAR_Sub_Daily_data_Global,NCAR_Via_MattMenne,,Istres France,43.42,4.95,28,,France,,WMO Resolution 40,raw,NA,NA,sbdy ,NA,,,1926,1945,1926,1945,1926,1945
1000245,20257,NCAR colorado USA_2_various_2,TD_13_NCAR_Sub_Daily_data_Global,NCAR_Via_MattMenne,,Cazaux France,44.53,-1.13,21,,France,,WMO Resolution 40,raw,NA,NA,sbdy ,NA,,,1926,1945,1926,1945,1926,1945
1000245,20258,NCAR colorado USA_2_various_2,TD_13_NCAR_Sub_Daily_data_Global,NCAR_Via_MattMenne,,Angers France,47.45,-0.52,52,,France,,WMO Resolution 40,raw,NA,NA,sbdy ,NA,,,1926,1945,1926,1945,1926,1945
1000245,20259,NCAR colorado USA_2_various_2,TD_13_NCAR_Sub_Daily_data_Global,NCAR_Via_MattMenne,,Les Sanguinaires Corsica,41.87,8.63,72,,France,,WMO Resolution 40,raw,NA,NA,sbdy ,NA,,,1926,1945,1926,1945,1926,1945
1000245,20260,NCAR colorado USA_2_various_2,TD_13_NCAR_Sub_Daily_data_Global,NCAR_Via_MattMenne,,Cape Corse Corsica,43.02,9.35,125,,France,,WMO Resolution 40,raw,NA,NA,sbdy ,NA,,,1926,1945,1926,1945,1926,1945
1000245,20261,NCAR colorado USA_2_various_2,TD_13_NCAR_Sub_Daily_data_Global,NCAR_Via_MattMenne,,Pertusato Corsica,41.37,9.17,106,,France,,WMO Resolution 40,raw,NA,NA,sbdy ,NA,,,1926,1945,1926,1945,1926,1945
1000245,20262,NCAR colorado USA_2_various_2,TD_13_NCAR_Sub_Daily_data_Global,NCAR_Via_MattMenne,,St Quentin France,49.82,3.2,100,,France,,WMO Resolution 40,raw,NA,NA,sbdy ,NA,,,1926,1945,1926,1945,1926,1945
1000245,20263,NCAR colorado USA_2_various_2,TD_13_NCAR_Sub_Daily_data_Global,NCAR_Via_MattMenne,,Brehat Island France,48.85,-3,35,,France,,WMO Resolution 40,raw,NA,NA,sbdy ,NA,,,1926,1945,1926,1945,1926,1945
1000245,20264,NCAR colorado USA_2_various_2,TD_13_NCAR_Sub_Daily_data_Global,NCAR_Via_MattMenne,,Quessant France (Joinville),48.45,-5.12,29,,France,,WMO Resolution 40,raw,NA,NA,sbdy ,NA,,,1926,1945,1926,1945,1926,1945
1000245,20265,NCAR colorado USA_2_various_2,TD_13_NCAR_Sub_Daily_data_Global,NCAR_Via_MattMenne,,Penmarch France,47.78,-4.37,20,,France,,WMO Resolution 40,raw,NA,NA,sbdy ,NA,,,1926,1945,1926,1945,1926,1945
1000245,20266,NCAR colorado USA_2_various_2,TD_13_NCAR_Sub_Daily_data_Global,NCAR_Via_MattMenne,,Millau France,44.07,3.2,407,,France,,WMO Resolution 40,raw,NA,NA,sbdy ,NA,,,1926,1945,1926,1945,1926,1945
1000245,20267,NCAR colorado USA_2_various_2,TD_13_NCAR_Sub_Daily_data_Global,NCAR_Via_MattMenne,,Saverne France,48.73,7.35,204,,France,,WMO Resolution 40,raw,NA,NA,sbdy ,NA,,,1926,1945,1926,1945,1926,1945
1000245,20268,NCAR colorado USA_2_various_2,TD_13_NCAR_Sub_Daily_data_Global,NCAR_Via_MattMenne,,La Chiappa Corsica,41.58,9.35,64,,France,,WMO Resolution 40,raw,NA,NA,sbdy ,NA,,,1926,1945,1926,1945,1926,1945
1000245,20269,NCAR colorado USA_2_various_2,TD_13_NCAR_Sub_Daily_data_Global,NCAR_Via_MattMenne,,La Coubre France,45.68,-1.23,6,,France,,WMO Resolution 40,raw,NA,NA,sbdy ,NA,,,1926,1945,1926,1945,1926,1945
1000245,20270,NCAR colorado USA_2_various_2,TD_13_NCAR_Sub_Daily_data_Global,NCAR_Via_MattMenne,,Bastia Corsica,42.68,9.42,288,,France,,WMO Resolution 40,raw,NA,NA,sbdy ,NA,,,1926,1945,1926,1945,1926,1945
1000245,20271,NCAR colorado USA_2_various_2,TD_13_NCAR_Sub_Daily_data_Global,NCAR_Via_MattMenne,,Auxerre France,47.8,3.55,211,,France,,WMO Resolution 40,raw,NA,NA,sbdy ,NA,,,1926,1945,1926,1945,1926,1945
1000245,20272,NCAR colorado USA_2_various_2,TD_13_NCAR_Sub_Daily_data_Global,NCAR_Via_MattMenne,,Lanslebourg France,45.28,6.88,1402,,France,,WMO Resolution 40,raw,NA,NA,sbdy ,NA,,,1926,1945,1926,1945,1926,1945
1000245,20273,NCAR colorado USA_2_various_2,TD_13_NCAR_Sub_Daily_data_Global,NCAR_Via_MattMenne,,Toulon France,43.1,5.92,22,,France,,WMO Resolution 40,raw,NA,NA,sbdy ,NA,,,1926,1945,1926,1945,1926,1945
1000245,20892,NCAR colorado USA_2_various_2,TD_13_NCAR_Sub_Daily_data_Global,NCAR_Via_MattMenne,,Vitry-En-Artois France,50.33,3,47,,France,,WMO Resolution 40,raw,NA,NA,sbdy ,NA,,,1926,1945,1926,1945,1926,1945
1000245,20906,NCAR colorado USA_2_various_2,TD_13_NCAR_Sub_Daily_data_Global,NCAR_Via_MattMenne,,Grevillers France,50.12,2.8,129,,France,,WMO Resolution 40,raw,NA,NA,sbdy ,NA,,,1926,1945,1926,1945,1926,1945
1000245,20914,NCAR colorado USA_2_various_2,TD_13_NCAR_Sub_Daily_data_Global,NCAR_Via_MattMenne,,Berk-Place France,50.42,1.6,7,,France,,WMO Resolution 40,raw,NA,NA,sbdy ,NA,,,1926,1945,1926,1945,1926,1945
1000245,20919,NCAR colorado USA_2_various_2,TD_13_NCAR_Sub_Daily_data_Global,NCAR_Via_MattMenne,,Abbeville France (Drucat),50.13,1.85,71,,France,,WMO Resolution 40,raw,NA,NA,sbdy ,NA,,,1926,1945,1926,1945,1926,1945
1000245,20921,NCAR colorado USA_2_various_2,TD_13_NCAR_Sub_Daily_data_Global,NCAR_Via_MattMenne,,Charleville France,49.78,4.63,156,,France,,WMO Resolution 40,raw,NA,NA,sbdy ,NA,,,1926,1945,1926,1945,1926,1945
1000245,20927,NCAR colorado USA_2_various_2,TD_13_NCAR_Sub_Daily_data_Global,NCAR_Via_MattMenne,,Poix Nord France,49.82,1.97,179,,France,,WMO Resolution 40,raw,NA,NA,sbdy ,NA,,,1926,1945,1926,1945,1926,1945
1000245,20931,NCAR colorado USA_2_various_2,TD_13_NCAR_Sub_Daily_data_Global,NCAR_Via_MattMenne,,Coulommiers France,48.82,3.08,78,,France,,WMO Resolution 40,raw,NA,NA,sbdy ,NA,,,1926,1945,1926,1945,1926,1945
1000245,20932,NCAR colorado USA_2_various_2,TD_13_NCAR_Sub_Daily_data_Global,NCAR_Via_MattMenne,,Villaroche France,48.77,2.2,175,,France,,WMO Resolution 40,raw,NA,NA,sbdy ,NA,,,1926,1945,1926,1945,1926,1945
1000245,20937,NCAR colorado USA_2_various_2,TD_13_NCAR_Sub_Daily_data_Global,NCAR_Via_MattMenne,,St Dizier France,48.63,4.97,146,,France,,WMO Resolution 40,raw,NA,NA,sbdy ,NA,,,1926,1945,1926,1945,1926,1945
1000245,20938,NCAR colorado USA_2_various_2,TD_13_NCAR_Sub_Daily_data_Global,NCAR_Via_MattMenne,,Luxeuil France,47.82,6.38,306,,France,,WMO Resolution 40,raw,NA,NA,sbdy ,NA,,,1926,1945,1926,1945,1926,1945
1000245,20948,NCAR colorado USA_2_various_2,TD_13_NCAR_Sub_Daily_data_Global,NCAR_Via_MattMenne,,Montdidier France,49.67,2.58,113,,France,,WMO Resolution 40,raw,NA,NA,sbdy ,NA,,,1926,1945,1926,1945,1926,1945
1000245,20962,NCAR colorado USA_2_various_2,TD_13_NCAR_Sub_Daily_data_Global,NCAR_Via_MattMenne,,Juvincourt France,49.42,3.88,59,,France,,WMO Resolution 40,raw,NA,NA,sbdy ,NA,,,1926,1945,1926,1945,1926,1945
1000245,27275,NCAR colorado USA_2_various_2,TD_13_NCAR_Sub_Daily_data_Global,NCAR_Via_MattMenne,,Oostende Belgium,51.2,2.92,3,,Belgium,,WMO Resolution 40,raw,NA,NA,sbdy ,NA,,,1926,1945,1926,1945,1926,1945
1000245,27276,NCAR colorado USA_2_various_2,TD_13_NCAR_Sub_Daily_data_Global,NCAR_Via_MattMenne,,Brussels Belgium (Evere),50.88,4.42,54,,Belgium,,WMO Resolution 40,raw,NA,NA,sbdy ,NA,,,1926,1945,1926,1945,1926,1945
1000245,27278,NCAR colorado USA_2_various_2,TD_13_NCAR_Sub_Daily_data_Global,NCAR_Via_MattMenne,,Forges Lez Chimay Belgium,49.98,4.33,327,,Belgium,,WMO Resolution 40,raw,NA,NA,sbdy ,NA,,,1926,1945,1926,1945,1926,1945
1000245,27320,NCAR colorado USA_2_various_2,TD_13_NCAR_Sub_Daily_data_Global,NCAR_Via_MattMenne,,Antwerp Belgium,51.18,4.47,10,,Belgium,,WMO Resolution 40,raw,NA,NA,sbdy ,NA,,,1926,1945,1926,1945,1926,1945
1000245,27340,NCAR colorado USA_2_various_2,TD_13_NCAR_Sub_Daily_data_Global,NCAR_Via_MattMenne,,Libramont Belgium,49.92,5.37,491,,Belgium,,WMO Resolution 40,raw,NA,NA,sbdy ,NA,,,1926,1945,1926,1945,1926,1945
1000245,28281,NCAR colorado USA_2_various_2,TD_13_NCAR_Sub_Daily_data_Global,NCAR_Via_MattMenne,,Zurich Switzerland,47.38,8.55,492,,Switzerland,,WMO Resolution 40,raw,NA,NA,sbdy ,NA,,,1926,1945,1926,1945,1926,1945
1000245,28282,NCAR colorado USA_2_various_2,TD_13_NCAR_Sub_Daily_data_Global,NCAR_Via_MattMenne,,Bern Switzerland,46.95,7.48,571,,Switzerland,,WMO Resolution 40,raw,NA,NA,sbdy ,NA,,,1926,1945,1926,1945,1926,1945
1000245,28283,NCAR colorado USA_2_various_2,TD_13_NCAR_Sub_Daily_data_Global,NCAR_Via_MattMenne,,Geneva Switzerland,46.23,6.08,423,,Switzerland,,WMO Resolution 40,raw,NA,NA,sbdy ,NA,,,1926,1945,1926,1945,1926,1945
1000245,28284,NCAR colorado USA_2_various_2,TD_13_NCAR_Sub_Daily_data_Global,NCAR_Via_MattMenne,,Lugano Switzerland,46,8.95,276,,Switzerland,,WMO Resolution 40,raw,NA,NA,sbdy ,NA,,,1926,1945,1926,1945,1926,1945
1000245,28285,NCAR colorado USA_2_various_2,TD_13_NCAR_Sub_Daily_data_Global,NCAR_Via_MattMenne,,Santis Switzerland,47.25,9.33,2500,,Switzerland,,WMO Resolution 40,raw,NA,NA,sbdy ,NA,,,1926,1945,1926,1945,1926,1945
1000245,28286,NCAR colorado USA_2_various_2,TD_13_NCAR_Sub_Daily_data_Global,NCAR_Via_MattMenne,,Jungfraujoch Switzerland,46.53,7.97,3578,,Switzerland,,WMO Resolution 40,raw,NA,NA,sbdy ,NA,,,1926,1945,1926,1945,1926,1945
1000245,29291,NCAR colorado USA_2_various_2,TD_13_NCAR_Sub_Daily_data_Global,NCAR_Via_MattMenne,,Helder Netherlands,52.97,4.75,6,,Netherlands,,WMO Resolution 40,raw,NA,NA,sbdy ,NA,,,1926,1945,1926,1945,1926,1945
1000245,29292,NCAR colorado USA_2_various_2,TD_13_NCAR_Sub_Daily_data_Global,NCAR_Via_MattMenne,,Vlissingen Netherlands,51.57,3.5,9,,Netherlands,,WMO Resolution 40,raw,NA,NA,sbdy ,NA,,,1926,1945,1926,1945,1926,1945
1000245,29293,NCAR colorado USA_2_various_2,TD_13_NCAR_Sub_Daily_data_Global,NCAR_Via_MattMenne,,De Bilt Netherlands,52.1,5.18,9,,Netherlands,,WMO Resolution 40,raw,NA,NA,sbdy ,NA,,,1926,1945,1926,1945,1926,1945
1000245,29294,NCAR colorado USA_2_various_2,TD_13_NCAR_Sub_Daily_data_Global,NCAR_Via_MattMenne,,Groningen Netherlands,53.22,6.55,10,,Netherlands,,WMO Resolution 40,raw,NA,NA,sbdy ,NA,,,1926,1945,1926,1945,1926,1945
1000245,29295,NCAR colorado USA_2_various_2,TD_13_NCAR_Sub_Daily_data_Global,NCAR_Via_MattMenne,,Amsterdam Netherlands (Schiphol),52.3,4.78,-3,,Netherlands,,WMO Resolution 40,raw,NA,NA,sbdy ,NA,,,1926,1945,1926,1945,1926,1945
1000245,29298,NCAR colorado USA_2_various_2,TD_13_NCAR_Sub_Daily_data_Global,NCAR_Via_MattMenne,,Noordhinder Netherlands,51.58,2.62,3,,Netherlands,,WMO Resolution 40,raw,NA,NA,sbdy ,NA,,,1926,1945,1926,1945,1926,1945
1000245,29299,NCAR colorado USA_2_various_2,TD_13_NCAR_Sub_Daily_data_Global,NCAR_Via_MattMenne,,Terschellingerbank Netherlands,53.45,4.78,3,,Netherlands,,WMO Resolution 40,raw,NA,NA,sbdy ,NA,,,1926,1945,1926,1945,1926,1945
1000245,30302,NCAR colorado USA_2_various_2,TD_13_NCAR_Sub_Daily_data_Global,NCAR_Via_MattMenne,,Milano Italy,45.88,9.28,118,,Italy,,WMO Resolution 40,raw,NA,NA,sbdy ,NA,,,1926,1945,1926,1945,1926,1945
1000245,30306,NCAR colorado USA_2_various_2,TD_13_NCAR_Sub_Daily_data_Global,NCAR_Via_MattMenne,,Genova Porto Italy,44.4,8.92,2,,Italy,,WMO Resolution 40,raw,NA,NA,sbdy ,NA,,,1926,1945,1926,1945,1926,1945
1000245,30307,NCAR colorado USA_2_various_2,TD_13_NCAR_Sub_Daily_data_Global,NCAR_Via_MattMenne,,Firenze Italy,43.8,11.2,73,,Italy,,WMO Resolution 40,raw,NA,NA,sbdy ,NA,,,1926,1945,1926,1945,1926,1945
1000245,30310,NCAR colorado USA_2_various_2,TD_13_NCAR_Sub_Daily_data_Global,NCAR_Via_MattMenne,,Trieste Free Territory,45.65,13.77,15,,Italy,,WMO Resolution 40,raw,NA,NA,sbdy ,NA,,,1926,1945,1926,1945,1926,1945
1000245,30311,NCAR colorado USA_2_various_2,TD_13_NCAR_Sub_Daily_data_Global,NCAR_Via_MattMenne,,Rome Italy (Centocelle),41.87,12.55,49,,Italy,,WMO Resolution 40,raw,NA,NA,sbdy ,NA,,,1926,1945,1926,1945,1926,1945
1000245,30312,NCAR colorado USA_2_various_2,TD_13_NCAR_Sub_Daily_data_Global,NCAR_Via_MattMenne,,Olbia Sardinia,40.93,9.5,2,,Italy,,WMO Resolution 40,raw,NA,NA,sbdy ,NA,,,1926,1945,1926,1945,1926,1945
1000245,30316,NCAR colorado USA_2_various_2,TD_13_NCAR_Sub_Daily_data_Global,NCAR_Via_MattMenne,,Messina Sicily,38.2,15.55,53,,Italy,,WMO Resolution 40,raw,NA,NA,sbdy ,NA,,,1926,1945,1926,1945,1926,1945
1000245,30332,NCAR colorado USA_2_various_2,TD_13_NCAR_Sub_Daily_data_Global,NCAR_Via_MattMenne,,Saseno Albania,40.5,19.28,339,,Italy,,WMO Resolution 40,raw,NA,NA,sbdy ,NA,,,1926,1945,1926,1945,1926,1945
1000245,30333,NCAR colorado USA_2_various_2,TD_13_NCAR_Sub_Daily_data_Global,NCAR_Via_MattMenne,,Taranto Italy,40.47,17.23,21,,Italy,,WMO Resolution 40,raw,NA,NA,sbdy ,NA,,,1926,1945,1926,1945,1926,1945
1000245,30335,NCAR colorado USA_2_various_2,TD_13_NCAR_Sub_Daily_data_Global,NCAR_Via_MattMenne,,Olbia Sardinia,40.93,9.5,2,,Italy,,WMO Resolution 40,raw,NA,NA,sbdy ,NA,,,1926,1945,1926,1945,1926,1945
1000245,30341,NCAR colorado USA_2_various_2,TD_13_NCAR_Sub_Daily_data_Global,NCAR_Via_MattMenne,,Malta,35.9,14.52,85,,Malta,,WMO Resolution 40,raw,NA,NA,sbdy ,NA,,,1926,1945,1926,1945,1926,1945
1000245,35353,NCAR colorado USA_2_various_2,TD_13_NCAR_Sub_Daily_data_Global,NCAR_Via_MattMenne,,Madrid Barajas Spain,40.47,-3.57,599,,Spain,,WMO Resolution 40,raw,NA,NA,sbdy ,NA,,,1926,1945,1926,1945,1926,1945
1000245,35355,NCAR colorado USA_2_various_2,TD_13_NCAR_Sub_Daily_data_Global,NCAR_Via_MattMenne,,Almeria Spain,36.85,-2.47,64,,Spain,,WMO Resolution 40,raw,NA,NA,sbdy ,NA,,,1926,1945,1926,1945,1926,1945
1000245,35357,NCAR colorado USA_2_various_2,TD_13_NCAR_Sub_Daily_data_Global,NCAR_Via_MattMenne,,Mahon Balearic Islands,39.88,4.27,42,,Spain,,WMO Resolution 40,raw,NA,NA,sbdy ,NA,,,1926,1945,1926,1945,1926,1945
1000245,35362,NCAR colorado USA_2_various_2,TD_13_NCAR_Sub_Daily_data_Global,NCAR_Via_MattMenne,,La Coruna Spain,43.38,-8.37,56,,Spain,,WMO Resolution 40,raw,NA,NA,sbdy ,NA,,,1926,1945,1926,1945,1926,1945
1000245,35369,NCAR colorado USA_2_various_2,TD_13_NCAR_Sub_Daily_data_Global,NCAR_Via_MattMenne,,San Fernando Spain,36.47,-6.2,28,,Spain,,WMO Resolution 40,raw,NA,NA,sbdy ,NA,,,1926,1945,1926,1945,1926,1945
1000245,35370,NCAR colorado USA_2_various_2,TD_13_NCAR_Sub_Daily_data_Global,NCAR_Via_MattMenne,,Santa Cruz De Tenerife Canary Islands,28.47,-16.27,36,,Spain,,WMO Resolution 40,raw,NA,NA,sbdy ,NA,,,1926,1945,1926,1945,1926,1945
1000245,35403,NCAR colorado USA_2_various_2,TD_13_NCAR_Sub_Daily_data_Global,NCAR_Via_MattMenne,,Cabo Juby Spanish West Africa,27.93,-13,4,,,,WMO Resolution 40,raw,NA,NA,sbdy ,NA,,,1926,1945,1926,1945,1926,1945
1000245,35404,NCAR colorado USA_2_various_2,TD_13_NCAR_Sub_Daily_data_Global,NCAR_Via_MattMenne,,Villa Cisneros Spanish West Africa,23.68,-15.9,6,,,,WMO Resolution 40,raw,NA,NA,sbdy ,NA,,,1926,1945,1926,1945,1926,1945
1000245,38381,NCAR colorado USA_2_various_2,TD_13_NCAR_Sub_Daily_data_Global,NCAR_Via_MattMenne,,Oporto Portugal,41.13,-8.67,24,,Portugal,,WMO Resolution 40,raw,NA,NA,sbdy ,NA,,,1926,1945,1926,1945,1926,1945
1000245,38384,NCAR colorado USA_2_various_2,TD_13_NCAR_Sub_Daily_data_Global,NCAR_Via_MattMenne,,Lisbon Portugal,38.73,-9.18,227,,Portugal,,WMO Resolution 40,raw,NA,NA,sbdy ,NA,,,1926,1945,1926,1945,1926,1945
1000245,38393,NCAR colorado USA_2_various_2,TD_13_NCAR_Sub_Daily_data_Global,NCAR_Via_MattMenne,,Praia Cape Verde Islands,14.92,-23.52,34,,Cape Verde,,WMO Resolution 40,raw,NA,NA,sbdy ,NA,,,1926,1945,1926,1945,1926,1945
1000245,38394,NCAR colorado USA_2_various_2,TD_13_NCAR_Sub_Daily_data_Global,NCAR_Via_MattMenne,,St Vincent Cape Verde Islands,16.88,-24.98,14,,Cape Verde,,WMO Resolution 40,raw,NA,NA,sbdy ,NA,,,1926,1945,1926,1945,1926,1945
1000245,38395,NCAR colorado USA_2_various_2,TD_13_NCAR_Sub_Daily_data_Global,NCAR_Via_MattMenne,,Funchal Madeira,32.63,-16.9,110,,,,WMO Resolution 40,raw,NA,NA,sbdy ,NA,,,1926,1945,1926,1945,1926,1945
1000245,38396,NCAR colorado USA_2_various_2,TD_13_NCAR_Sub_Daily_data_Global,NCAR_Via_MattMenne,,Ponta Delgada Azores,37.73,-25.67,21,,,,WMO Resolution 40,raw,NA,NA,sbdy ,NA,,,1926,1945,1926,1945,1926,1945
1000245,38398,NCAR colorado USA_2_various_2,TD_13_NCAR_Sub_Daily_data_Global,NCAR_Via_MattMenne,,Horta Azores,38.53,-28.63,64,,Portugal,,WMO Resolution 40,raw,NA,NA,sbdy ,NA,,,1926,1945,1926,1945,1926,1945
1000245,40001,NCAR colorado USA_2_various_2,TD_13_NCAR_Sub_Daily_data_Global,NCAR_Via_MattMenne,,Krefeld Germany,51.37,6.52,32,,Germany,,WMO Resolution 40,raw,NA,NA,sbdy ,NA,,,1926,1945,1926,1945,1926,1945
1000245,40002,NCAR colorado USA_2_various_2,TD_13_NCAR_Sub_Daily_data_Global,NCAR_Via_MattMenne,,Duesseldorf Germany,51.28,6.77,35,,Germany,,WMO Resolution 40,raw,NA,NA,sbdy ,NA,,,1926,1945,1926,1945,1926,1945
1000245,40003,NCAR colorado USA_2_various_2,TD_13_NCAR_Sub_Daily_data_Global,NCAR_Via_MattMenne,,Muenchen Gladbach Germany,51.18,6.4,78,,Germany,,WMO Resolution 40,raw,NA,NA,sbdy ,NA,,,1926,1945,1926,1945,1926,1945
1000245,40013,NCAR colorado USA_2_various_2,TD_13_NCAR_Sub_Daily_data_Global,NCAR_Via_MattMenne,,Koeln Germany (Ostheim),50.93,7.07,49,,Germany,,WMO Resolution 40,raw,NA,NA,sbdy ,NA,,,1926,1945,1926,1945,1926,1945
1000245,40022,NCAR colorado USA_2_various_2,TD_13_NCAR_Sub_Daily_data_Global,NCAR_Via_MattMenne,,Bonn Germany (Hangelar),50.77,7.17,60,,Germany,,WMO Resolution 40,raw,NA,NA,sbdy ,NA,,,1926,1945,1926,1945,1926,1945
1000245,40023,NCAR colorado USA_2_various_2,TD_13_NCAR_Sub_Daily_data_Global,NCAR_Via_MattMenne,,Lippe Germany,50.7,8.08,594,,Germany,,WMO Resolution 40,raw,NA,NA,sbdy ,NA,,,1926,1945,1926,1945,1926,1945
1000245,40040,NCAR colorado USA_2_various_2,TD_13_NCAR_Sub_Daily_data_Global,NCAR_Via_MattMenne,,Montabaur Germany,50.43,7.83,252,,Germany,,WMO Resolution 40,raw,NA,NA,sbdy ,NA,,,1926,1945,1926,1945,1926,1945
1000245,40041,NCAR colorado USA_2_various_2,TD_13_NCAR_Sub_Daily_data_Global,NCAR_Via_MattMenne,,Nuerburg Germany,50.35,6.95,619,,Germany,,WMO Resolution 40,raw,NA,NA,sbdy ,NA,,,1926,1945,1926,1945,1926,1945
1000245,40042,NCAR colorado USA_2_various_2,TD_13_NCAR_Sub_Daily_data_Global,NCAR_Via_MattMenne,,Koblenz Germany (Karthause),50.35,7.57,173,,Germany,,WMO Resolution 40,raw,NA,NA,sbdy ,NA,,,1926,1945,1926,1945,1926,1945
1000245,40049,NCAR colorado USA_2_various_2,TD_13_NCAR_Sub_Daily_data_Global,NCAR_Via_MattMenne,,Trier Germany (Petrisberg),49.75,6.67,264,,Germany,,WMO Resolution 40,raw,NA,NA,sbdy ,NA,,,1926,1945,1926,1945,1926,1945
1000245,40062,NCAR colorado USA_2_various_2,TD_13_NCAR_Sub_Daily_data_Global,NCAR_Via_MattMenne,,Rheine Germany,52.28,7.38,38,,Germany,,WMO Resolution 40,raw,NA,NA,sbdy ,NA,,,1926,1945,1926,1945,1926,1945
1000245,40065,NCAR colorado USA_2_various_2,TD_13_NCAR_Sub_Daily_data_Global,NCAR_Via_MattMenne,,Osnabruck Germany,52.28,8.02,88,,Germany,,WMO Resolution 40,raw,NA,NA,sbdy ,NA,,,1926,1945,1926,1945,1926,1945
1000245,40066,NCAR colorado USA_2_various_2,TD_13_NCAR_Sub_Daily_data_Global,NCAR_Via_MattMenne,,Muenster Germany (Loddenheide),51.93,7.65,56,,Germany,,WMO Resolution 40,raw,NA,NA,sbdy ,NA,,,1926,1945,1926,1945,1926,1945
1000245,40067,NCAR colorado USA_2_various_2,TD_13_NCAR_Sub_Daily_data_Global,NCAR_Via_MattMenne,,Muenster Germany (Handorf),52,7.73,53,,Germany,,WMO Resolution 40,raw,NA,NA,sbdy ,NA,,,1926,1945,1926,1945,1926,1945
1000245,40068,NCAR colorado USA_2_various_2,TD_13_NCAR_Sub_Daily_data_Global,NCAR_Via_MattMenne,,Werl Germany,51.57,7.92,85,,Germany,,WMO Resolution 40,raw,NA,NA,sbdy ,NA,,,1926,1945,1926,1945,1926,1945
1000245,40069,NCAR colorado USA_2_various_2,TD_13_NCAR_Sub_Daily_data_Global,NCAR_Via_MattMenne,,Emmerich Germany,51.83,6.27,17,,Germany,,WMO Resolution 40,raw,NA,NA,sbdy ,NA,,,1926,1945,1926,1945,1926,1945
1000245,40072,NCAR colorado USA_2_various_2,TD_13_NCAR_Sub_Daily_data_Global,NCAR_Via_MattMenne,,Guetersloh Germany,51.93,8.32,67,,Germany,,WMO Resolution 40,raw,NA,NA,sbdy ,NA,,,1926,1945,1926,1945,1926,1945
1000245,40075,NCAR colorado USA_2_various_2,TD_13_NCAR_Sub_Daily_data_Global,NCAR_Via_MattMenne,,Lippstadt Germany,51.72,8.37,75,,Germany,,WMO Resolution 40,raw,NA,NA,sbdy ,NA,,,1926,1945,1926,1945,1926,1945
1000245,40077,NCAR colorado USA_2_various_2,TD_13_NCAR_Sub_Daily_data_Global,NCAR_Via_MattMenne,,Paderborn Germany,51.7,8.75,187,,Germany,,WMO Resolution 40,raw,NA,NA,sbdy ,NA,,,1926,1945,1926,1945,1926,1945
1000245,40082,NCAR colorado USA_2_various_2,TD_13_NCAR_Sub_Daily_data_Global,NCAR_Via_MattMenne,,Luedenscheid Germany,51.22,7.63,447,,Germany,,WMO Resolution 40,raw,NA,NA,sbdy ,NA,,,1926,1945,1926,1945,1926,1945
1000245,40087,NCAR colorado USA_2_various_2,TD_13_NCAR_Sub_Daily_data_Global,NCAR_Via_MattMenne,,Scherfede Germany,51.53,9.02,199,,Germany,,WMO Resolution 40,raw,NA,NA,sbdy ,NA,,,1926,1945,1926,1945,1926,1945
1000245,40090,NCAR colorado USA_2_various_2,TD_13_NCAR_Sub_Daily_data_Global,NCAR_Via_MattMenne,,Brilon Germany,51.4,8.57,449,,Germany,,WMO Resolution 40,raw,NA,NA,sbdy ,NA,,,1926,1945,1926,1945,1926,1945
1000245,40102,NCAR colorado USA_2_various_2,TD_13_NCAR_Sub_Daily_data_Global,NCAR_Via_MattMenne,,Westerland Sylt Germany,54.92,8.35,15,,Germany,,WMO Resolution 40,raw,NA,NA,sbdy ,NA,,,1926,1945,1926,1945,1926,1945
1000245,40108,NCAR colorado USA_2_various_2,TD_13_NCAR_Sub_Daily_data_Global,NCAR_Via_MattMenne,,Schleswig Land Germany,54.47,9.53,20,,Germany,,WMO Resolution 40,raw,NA,NA,sbdy ,NA,,,1926,1945,1926,1945,1926,1945
1000245,40110,NCAR colorado USA_2_various_2,TD_13_NCAR_Sub_Daily_data_Global,NCAR_Via_MattMenne,,Neubrel-By-Rendsburg Germany,54.3,9.6,4,,Germany,,WMO Resolution 40,raw,NA,NA,sbdy ,NA,,,1926,1945,1926,1945,1926,1945
1000245,40119,NCAR colorado USA_2_various_2,TD_13_NCAR_Sub_Daily_data_Global,NCAR_Via_MattMenne,,Marienleuchte Germany (Fenmarn),54.5,11.25,10,,Germany,,WMO Resolution 40,raw,NA,NA,sbdy ,NA,,,1926,1945,1926,1945,1926,1945
1000245,40121,NCAR colorado USA_2_various_2,TD_13_NCAR_Sub_Daily_data_Global,NCAR_Via_MattMenne,,Brunsbuettelkoog Germany,53.9,9.13,7,,Germany,,WMO Resolution 40,raw,NA,NA,sbdy ,NA,,,1926,1945,1926,1945,1926,1945
1000245,40126,NCAR colorado USA_2_various_2,TD_13_NCAR_Sub_Daily_data_Global,NCAR_Via_MattMenne,,Grossenbrode Germany,54.37,11.08,3,,Germany,,WMO Resolution 40,raw,NA,NA,sbdy ,NA,,,1926,1945,1926,1945,1926,1945
1000245,40128,NCAR colorado USA_2_various_2,TD_13_NCAR_Sub_Daily_data_Global,NCAR_Via_MattMenne,,Neumuenster Germany,54.1,9.97,24,,Germany,,WMO Resolution 40,raw,NA,NA,sbdy ,NA,,,1926,1945,1926,1945,1926,1945
1000245,40130,NCAR colorado USA_2_various_2,TD_13_NCAR_Sub_Daily_data_Global,NCAR_Via_MattMenne,,Travemuende Germany,53.97,10.87,0,,Germany,,WMO Resolution 40,raw,NA,NA,sbdy ,NA,,,1926,1945,1926,1945,1926,1945
1000245,40144,NCAR colorado USA_2_various_2,TD_13_NCAR_Sub_Daily_data_Global,NCAR_Via_MattMenne,,Ludwigslust Germany,53.33,11.5,39,,Germany,,WMO Resolution 40,raw,NA,NA,sbdy ,NA,,,1926,1945,1926,1945,1926,1945
1000245,40146,NCAR colorado USA_2_various_2,TD_13_NCAR_Sub_Daily_data_Global,NCAR_Via_MattMenne,,Schwerin Germany,53.62,11.38,46,,Germany,,WMO Resolution 40,raw,NA,NA,sbdy ,NA,,,1926,1945,1926,1945,1926,1945
1000245,40157,NCAR colorado USA_2_various_2,TD_13_NCAR_Sub_Daily_data_Global,NCAR_Via_MattMenne,,Jever Germany,53.53,7.88,6,,Germany,,WMO Resolution 40,raw,NA,NA,sbdy ,NA,,,1926,1945,1926,1945,1926,1945
1000245,40163,NCAR colorado USA_2_various_2,TD_13_NCAR_Sub_Daily_data_Global,NCAR_Via_MattMenne,,Lathen-On-Ems Germany,52.87,7.32,11,,Germany,,WMO Resolution 40,raw,NA,NA,sbdy ,NA,,,1926,1945,1926,1945,1926,1945
1000245,40165,NCAR colorado USA_2_various_2,TD_13_NCAR_Sub_Daily_data_Global,NCAR_Via_MattMenne,,Zwischenahn Land Germany,53.18,8.02,10,,Germany,,WMO Resolution 40,raw,NA,NA,sbdy ,NA,,,1926,1945,1926,1945,1926,1945
1000245,40168,NCAR colorado USA_2_various_2,TD_13_NCAR_Sub_Daily_data_Global,NCAR_Via_MattMenne,,Rotenburg Germany,53.1,9.4,39,,Germany,,WMO Resolution 40,raw,NA,NA,sbdy ,NA,,,1926,1945,1926,1945,1926,1945
1000245,40170,NCAR colorado USA_2_various_2,TD_13_NCAR_Sub_Daily_data_Global,NCAR_Via_MattMenne,,Quakenbrueck Germany,52.67,7.93,22,,Germany,,WMO Resolution 40,raw,NA,NA,sbdy ,NA,,,1926,1945,1926,1945,1926,1945
1000245,40174,NCAR colorado USA_2_various_2,TD_13_NCAR_Sub_Daily_data_Global,NCAR_Via_MattMenne,,Plantluenne Germany,52.43,7.4,29,,Germany,,WMO Resolution 40,raw,NA,NA,sbdy ,NA,,,1926,1945,1926,1945,1926,1945
1000245,40175,NCAR colorado USA_2_various_2,TD_13_NCAR_Sub_Daily_data_Global,NCAR_Via_MattMenne,,Achmer Germany (Bramsche),52.37,7.93,53,,Germany,,WMO Resolution 40,raw,NA,NA,sbdy ,NA,,,1926,1945,1926,1945,1926,1945
1000245,40176,NCAR colorado USA_2_various_2,TD_13_NCAR_Sub_Daily_data_Global,NCAR_Via_MattMenne,,Wunstorf Germany,52.47,9.45,52,,Germany,,WMO Resolution 40,raw,NA,NA,sbdy ,NA,,,1926,1945,1926,1945,1926,1945
1000245,40179,NCAR colorado USA_2_various_2,TD_13_NCAR_Sub_Daily_data_Global,NCAR_Via_MattMenne,,Bielfeld Germany,51.97,8.55,142,,Germany,,WMO Resolution 40,raw,NA,NA,sbdy ,NA,,,1926,1945,1926,1945,1926,1945
1000245,40181,NCAR colorado USA_2_various_2,TD_13_NCAR_Sub_Daily_data_Global,NCAR_Via_MattMenne,,Fassberg Germany,52.93,10.18,71,,Germany,,WMO Resolution 40,raw,NA,NA,sbdy ,NA,,,1926,1945,1926,1945,1926,1945
1000245,40182,NCAR colorado USA_2_various_2,TD_13_NCAR_Sub_Daily_data_Global,NCAR_Via_MattMenne,,Celle Germany (Bergen),52.6,10.03,39,,Germany,,WMO Resolution 40,raw,NA,NA,sbdy ,NA,,,1926,1945,1926,1945,1926,1945
1000245,40183,NCAR colorado USA_2_various_2,TD_13_NCAR_Sub_Daily_data_Global,NCAR_Via_MattMenne,,Hildesheim Germany (Gronau),52.15,9.75,88,,Germany,,WMO Resolution 40,raw,NA,NA,sbdy ,NA,,,1926,1945,1926,1945,1926,1945
1000245,40186,NCAR colorado USA_2_various_2,TD_13_NCAR_Sub_Daily_data_Global,NCAR_Via_MattMenne,,Porta Westphalica Germany,52.23,8.92,85,,Germany,,WMO Resolution 40,raw,NA,NA,sbdy ,NA,,,1926,1945,1926,1945,1926,1945
1000245,40187,NCAR colorado USA_2_various_2,TD_13_NCAR_Sub_Daily_data_Global,NCAR_Via_MattMenne,,Detmold Germany,51.95,8.92,195,,Germany,,WMO Resolution 40,raw,NA,NA,sbdy ,NA,,,1926,1945,1926,1945,1926,1945
1000245,40188,NCAR colorado USA_2_various_2,TD_13_NCAR_Sub_Daily_data_Global,NCAR_Via_MattMenne,,Wesendorf Germany (Gifhorn),52.58,10.53,64,,Germany,,WMO Resolution 40,raw,NA,NA,sbdy ,NA,,,1926,1945,1926,1945,1926,1945
1000245,40190,NCAR colorado USA_2_various_2,TD_13_NCAR_Sub_Daily_data_Global,NCAR_Via_MattMenne,,Braunschweig Germany (Broitzem),52.23,10.48,79,,Germany,,WMO Resolution 40,raw,NA,NA,sbdy ,NA,,,1926,1945,1926,1945,1926,1945
1000245,40192,NCAR colorado USA_2_various_2,TD_13_NCAR_Sub_Daily_data_Global,NCAR_Via_MattMenne,,Braunschweig Germany (Waggum),52.32,10.55,85,,Germany,,WMO Resolution 40,raw,NA,NA,sbdy ,NA,,,1926,1945,1926,1945,1926,1945
1000245,40194,NCAR colorado USA_2_various_2,TD_13_NCAR_Sub_Daily_data_Global,NCAR_Via_MattMenne,,Bodenwerder Germany,51.98,9.52,74,,Germany,,WMO Resolution 40,raw,NA,NA,sbdy ,NA,,,1926,1945,1926,1945,1926,1945
1000245,40197,NCAR colorado USA_2_various_2,TD_13_NCAR_Sub_Daily_data_Global,NCAR_Via_MattMenne,,Goslar Germany,51.93,10.43,257,,Germany,,WMO Resolution 40,raw,NA,NA,sbdy ,NA,,,1926,1945,1926,1945,1926,1945
1000245,40199,NCAR colorado USA_2_various_2,TD_13_NCAR_Sub_Daily_data_Global,NCAR_Via_MattMenne,,Salzwedel Germany,52.83,11.2,47,,Germany,,WMO Resolution 40,raw,NA,NA,sbdy ,NA,,,1926,1945,1926,1945,1926,1945
1000245,40201,NCAR colorado USA_2_various_2,TD_13_NCAR_Sub_Daily_data_Global,NCAR_Via_MattMenne,,Gardelegen Germany,52.53,11.43,52,,Germany,,WMO Resolution 40,raw,NA,NA,sbdy ,NA,,,1926,1945,1926,1945,1926,1945
1000245,40204,NCAR colorado USA_2_various_2,TD_13_NCAR_Sub_Daily_data_Global,NCAR_Via_MattMenne,,Stendal Germany (Tandermuende),52.63,11.83,52,,Germany,,WMO Resolution 40,raw,NA,NA,sbdy ,NA,,,1926,1945,1926,1945,1926,1945
1000245,40205,NCAR colorado USA_2_various_2,TD_13_NCAR_Sub_Daily_data_Global,NCAR_Via_MattMenne,,Brandenburg Germany (Breist) (Motzo-),52.43,12.45,31,,Germany,,WMO Resolution 40,raw,NA,NA,sbdy ,NA,,,1926,1945,1926,1945,1926,1945
1000245,40206,NCAR colorado USA_2_various_2,TD_13_NCAR_Sub_Daily_data_Global,NCAR_Via_MattMenne,,Rangesdorf Germany,52.28,13.43,38,,Germany,,WMO Resolution 40,raw,NA,NA,sbdy ,NA,,,1926,1945,1926,1945,1926,1945
1000245,40207,NCAR colorado USA_2_various_2,TD_13_NCAR_Sub_Daily_data_Global,NCAR_Via_MattMenne,,Berlin Germany (Staaken),52.53,13.12,32,,Germany,,WMO Resolution 40,raw,NA,NA,sbdy ,NA,,,1926,1945,1926,1945,1926,1945
1000245,40208,NCAR colorado USA_2_various_2,TD_13_NCAR_Sub_Daily_data_Global,NCAR_Via_MattMenne,,Doberitz Germany,52.53,13.02,42,,Germany,,WMO Resolution 40,raw,NA,NA,sbdy ,NA,,,1926,1945,1926,1945,1926,1945
1000245,40210,NCAR colorado USA_2_various_2,TD_13_NCAR_Sub_Daily_data_Global,NCAR_Via_MattMenne,,Perleberg Germany (Wittenberge),53.07,11.82,31,,Germany,,WMO Resolution 40,raw,NA,NA,sbdy ,NA,,,1926,1945,1926,1945,1926,1945
1000245,40214,NCAR colorado USA_2_various_2,TD_13_NCAR_Sub_Daily_data_Global,NCAR_Via_MattMenne,,Neuruppin Germany,52.92,12.8,45,,Germany,,WMO Resolution 40,raw,NA,NA,sbdy ,NA,,,1926,1945,1926,1945,1926,1945
1000245,40219,NCAR colorado USA_2_various_2,TD_13_NCAR_Sub_Daily_data_Global,NCAR_Via_MattMenne,,Treuenbrietzen Germany,52.1,12.88,70,,Germany,,WMO Resolution 40,raw,NA,NA,sbdy ,NA,,,1926,1945,1926,1945,1926,1945
1000245,40221,NCAR colorado USA_2_various_2,TD_13_NCAR_Sub_Daily_data_Global,NCAR_Via_MattMenne,,Jueterbog Germany (Waldlager) (Juterbog),52,12.98,103,,Germany,,WMO Resolution 40,raw,NA,NA,sbdy ,NA,,,1926,1945,1926,1945,1926,1945
1000245,40223,NCAR colorado USA_2_various_2,TD_13_NCAR_Sub_Daily_data_Global,NCAR_Via_MattMenne,,Jueterbog Damm Germany,51.98,13.08,89,,Germany,,WMO Resolution 40,raw,NA,NA,sbdy ,NA,,,1926,1945,1926,1945,1926,1945
1000245,40224,NCAR colorado USA_2_various_2,TD_13_NCAR_Sub_Daily_data_Global,NCAR_Via_MattMenne,,Finsterwalde Germany (Kirchhain),51.6,13.73,123,,Germany,,WMO Resolution 40,raw,NA,NA,sbdy ,NA,,,1926,1945,1926,1945,1926,1945
1000245,40225,NCAR colorado USA_2_various_2,TD_13_NCAR_Sub_Daily_data_Global,NCAR_Via_MattMenne,,Werder Germany,52.4,12.92,32,,Germany,,WMO Resolution 40,raw,NA,NA,sbdy ,NA,,,1926,1945,1926,1945,1926,1945
1000245,40226,NCAR colorado USA_2_various_2,TD_13_NCAR_Sub_Daily_data_Global,NCAR_Via_MattMenne,,Berlin Germany (Adlershof),52.43,13.52,45,,Germany,,WMO Resolution 40,raw,NA,NA,sbdy ,NA,,,1926,1945,1926,1945,1926,1945
1000245,40227,NCAR colorado USA_2_various_2,TD_13_NCAR_Sub_Daily_data_Global,NCAR_Via_MattMenne,,Schoenfeld Diepensee Germany,52.37,13.52,46,,Germany,,WMO Resolution 40,raw,NA,NA,sbdy ,NA,,,1926,1945,1926,1945,1926,1945
1000245,40228,NCAR colorado USA_2_various_2,TD_13_NCAR_Sub_Daily_data_Global,NCAR_Via_MattMenne,,Cottbus Germany,51.77,14.3,75,,Germany,,WMO Resolution 40,raw,NA,NA,sbdy ,NA,,,1926,1945,1926,1945,1926,1945
1000245,40230,NCAR colorado USA_2_various_2,TD_13_NCAR_Sub_Daily_data_Global,NCAR_Via_MattMenne,,Sorau Sommerfeld Poland,51.65,15.15,143,,Poland,,WMO Resolution 40,raw,NA,NA,sbdy ,NA,,,1926,1945,1926,1945,1926,1945
1000245,40231,NCAR colorado USA_2_various_2,TD_13_NCAR_Sub_Daily_data_Global,NCAR_Via_MattMenne,,Guben Germany,51.98,14.73,41,,Germany,,WMO Resolution 40,raw,NA,NA,sbdy ,NA,,,1926,1945,1926,1945,1926,1945
1000245,40234,NCAR colorado USA_2_various_2,TD_13_NCAR_Sub_Daily_data_Global,NCAR_Via_MattMenne,,Frankfurt-on-Oder Germany,52.33,14.62,49,,Poland,,WMO Resolution 40,raw,NA,NA,sbdy ,NA,,,1926,1945,1926,1945,1926,1945
1000245,40239,NCAR colorado USA_2_various_2,TD_13_NCAR_Sub_Daily_data_Global,NCAR_Via_MattMenne,,Meseritz Poland,52.43,15.55,46,,Poland,,WMO Resolution 40,raw,NA,NA,sbdy ,NA,,,1926,1945,1926,1945,1926,1945
1000245,40240,NCAR colorado USA_2_various_2,TD_13_NCAR_Sub_Daily_data_Global,NCAR_Via_MattMenne,,Altkarbe Poland,52.85,15.67,35,,Poland,,WMO Resolution 40,raw,NA,NA,sbdy ,NA,,,1926,1945,1926,1945,1926,1945
1000245,40242,NCAR colorado USA_2_various_2,TD_13_NCAR_Sub_Daily_data_Global,NCAR_Via_MattMenne,,Werneuchen Germany,52.65,13.73,74,,Germany,,WMO Resolution 40,raw,NA,NA,sbdy ,NA,,,1926,1945,1926,1945,1926,1945
1000245,40243,NCAR colorado USA_2_various_2,TD_13_NCAR_Sub_Daily_data_Global,NCAR_Via_MattMenne,,Strausberg Germany,52.58,13.92,81,,Germany,,WMO Resolution 40,raw,NA,NA,sbdy ,NA,,,1926,1945,1926,1945,1926,1945
1000245,40245,NCAR colorado USA_2_various_2,TD_13_NCAR_Sub_Daily_data_Global,NCAR_Via_MattMenne,,Finow Germany,52.83,13.7,42,,Germany,,WMO Resolution 40,raw,NA,NA,sbdy ,NA,,,1926,1945,1926,1945,1926,1945
1000245,40247,NCAR colorado USA_2_various_2,TD_13_NCAR_Sub_Daily_data_Global,NCAR_Via_MattMenne,,Konigsberg Poland (Neumark) (Fiddichow),52.88,14.38,49,,Poland,,WMO Resolution 40,raw,NA,NA,sbdy ,NA,,,1926,1945,1926,1945,1926,1945
1000245,40249,NCAR colorado USA_2_various_2,TD_13_NCAR_Sub_Daily_data_Global,NCAR_Via_MattMenne,,Stargard Poland,53.32,15,31,,Poland,,WMO Resolution 40,raw,NA,NA,sbdy ,NA,,,1926,1945,1926,1945,1926,1945
1000245,40251,NCAR colorado USA_2_various_2,TD_13_NCAR_Sub_Daily_data_Global,NCAR_Via_MattMenne,,Schonwalde Germany,52.6,13.15,32,,Germany,,WMO Resolution 40,raw,NA,NA,sbdy ,NA,,,1926,1945,1926,1945,1926,1945
1000245,40252,NCAR colorado USA_2_various_2,TD_13_NCAR_Sub_Daily_data_Global,NCAR_Via_MattMenne,,Berlin Germany (Gatow),52.47,13.13,45,,Germany,,WMO Resolution 40,raw,NA,NA,sbdy ,NA,,,1926,1945,1926,1945,1926,1945
1000245,40258,NCAR colorado USA_2_various_2,TD_13_NCAR_Sub_Daily_data_Global,NCAR_Via_MattMenne,,Markisch Poland (Friedland),53.4,16.1,149,,Poland,,WMO Resolution 40,raw,NA,NA,sbdy ,NA,,,1926,1945,1926,1945,1926,1945
1000245,40262,NCAR colorado USA_2_various_2,TD_13_NCAR_Sub_Daily_data_Global,NCAR_Via_MattMenne,,Schivelbein Poland,53.77,15.78,89,,Poland,,WMO Resolution 40,raw,NA,NA,sbdy ,NA,,,1926,1945,1926,1945,1926,1945
1000245,40266,NCAR colorado USA_2_various_2,TD_13_NCAR_Sub_Daily_data_Global,NCAR_Via_MattMenne,,Nest Poland,54.28,16.12,0,,Poland,,WMO Resolution 40,raw,NA,NA,sbdy ,NA,,,1926,1945,1926,1945,1926,1945
1000245,40268,NCAR colorado USA_2_various_2,TD_13_NCAR_Sub_Daily_data_Global,NCAR_Via_MattMenne,,Stolpmunde Poland,54.58,16.85,13,,Poland,,WMO Resolution 40,raw,NA,NA,sbdy ,NA,,,1926,1945,1926,1945,1926,1945
1000245,40271,NCAR colorado USA_2_various_2,TD_13_NCAR_Sub_Daily_data_Global,NCAR_Via_MattMenne,,Buetow Poland,54.17,17.5,124,,Poland,,WMO Resolution 40,raw,NA,NA,sbdy ,NA,,,1926,1945,1926,1945,1926,1945
1000245,40272,NCAR colorado USA_2_various_2,TD_13_NCAR_Sub_Daily_data_Global,NCAR_Via_MattMenne,,Pollnow Poland,54.12,16.68,79,,Poland,,WMO Resolution 40,raw,NA,NA,sbdy ,NA,,,1926,1945,1926,1945,1926,1945
1000245,40273,NCAR colorado USA_2_various_2,TD_13_NCAR_Sub_Daily_data_Global,NCAR_Via_MattMenne,,Pinnow Poland,53.9,15.45,39,,Poland,,WMO Resolution 40,raw,NA,NA,sbdy ,NA,,,1926,1945,1926,1945,1926,1945
1000245,40274,NCAR colorado USA_2_various_2,TD_13_NCAR_Sub_Daily_data_Global,NCAR_Via_MattMenne,,Mackfitz Poland,53.75,15.33,41,,Poland,,WMO Resolution 40,raw,NA,NA,sbdy ,NA,,,1926,1945,1926,1945,1926,1945
1000245,40278,NCAR colorado USA_2_various_2,TD_13_NCAR_Sub_Daily_data_Global,NCAR_Via_MattMenne,,Putnitz Germany (Ribnitz),54.27,12.42,3,,Germany,,WMO Resolution 40,raw,NA,NA,sbdy ,NA,,,1926,1945,1926,1945,1926,1945
1000245,40279,NCAR colorado USA_2_various_2,TD_13_NCAR_Sub_Daily_data_Global,NCAR_Via_MattMenne,,Barth Germany,54.35,12.72,3,,Germany,,WMO Resolution 40,raw,NA,NA,sbdy ,NA,,,1926,1945,1926,1945,1926,1945
1000245,40281,NCAR colorado USA_2_various_2,TD_13_NCAR_Sub_Daily_data_Global,NCAR_Via_MattMenne,,Parow Germany (Stralsund),54.37,13.08,6,,Germany,,WMO Resolution 40,raw,NA,NA,sbdy ,NA,,,1926,1945,1926,1945,1926,1945
